{"type":"FeatureCollection","features":[{"type":"Feature","geometry":{"type":"Point","coordinates":[-80.206753,25.83273]},"properties":{"name":"asdasdsad","coordinate":"123123,123123","municipality":"Kirklareli Centre","freeformAddress":"Kirklareli Centre","country":"Turkey"}},{"type":"Feature","geometry":{"type":"Point","coordinates":[27.2356,41.78823]},"properties":{"name":"ZES","coordinate":["41.78823,27.2356"],"municipality":"Kirklareli Centre","freeformAddress":"Kirklareli Centre","country":"Turkey"}},{"type":"Feature","geometry":{"type":"Point","coordinates":[26.57063,41.66628]},"properties":{"name":"Eşarj Abdurrahman Kelebek Sokak","coordinate":["41.66628,26.57063"],"municipality":"Edirne Centre","freeformAddress":"Kelebek Sokak, 22100 Abdurrahman","country":"Turkey"}},{"type":"Feature","geometry":{"type":"Point","coordinates":[26.5709,41.66678]},"properties":{"name":"ZES Abdurrahman Kelebek Sokak","coordinate":["41.66678,26.5709"],"municipality":"Edirne Centre","freeformAddress":"Kelebek Sokak 59, 22100 Abdurrahman","country":"Turkey"}},{"type":"Feature","geometry":{"type":"Point","coordinates":[26.53556,41.50299]},"properties":{"name":"Ορεστιάδα Βασιλέως Κωνσταντίνου","coordinate":["41.50299,26.53556"],"municipality":"Ορεστιάδα","freeformAddress":"Βασιλέως Κωνσταντίνου, 68200 Ορεστιάδα","country":"Greece"}},{"type":"Feature","geometry":{"type":"Point","coordinates":[27.2996,41.54397]},"properties":{"name":"ZES","coordinate":["41.54397,27.2996"],"municipality":"Kirklareli Centre","freeformAddress":"Kirklareli Centre (Luleburgaz)","country":"Turkey"}},{"type":"Feature","geometry":{"type":"Point","coordinates":[27.2996,41.54397]},"properties":{"name":"ZES","coordinate":["41.54397,27.2996"],"municipality":"Kirklareli Centre","freeformAddress":"Kirklareli Centre (Luleburgaz)","country":"Turkey"}},{"type":"Feature","geometry":{"type":"Point","coordinates":[27.3493,41.386]},"properties":{"name":"ZES Durak İstasyon Caddesi","coordinate":["41.386,27.3493"],"municipality":"Kirklareli Centre","freeformAddress":"İstasyon Caddesi 151, 39750 Durak","country":"Turkey"}},{"type":"Feature","geometry":{"type":"Point","coordinates":[27.37362,41.39827]},"properties":{"name":"GERSAN İstiklal","coordinate":["41.39827,27.37362"],"municipality":"Kirklareli Centre","freeformAddress":"39750 İstiklal","country":"Turkey"}},{"type":"Feature","geometry":{"type":"Point","coordinates":[27.3493,41.386]},"properties":{"name":"ZES Durak İstasyon Caddesi","coordinate":["41.386,27.3493"],"municipality":"Kirklareli Centre","freeformAddress":"İstasyon Caddesi 151, 39750 Durak","country":"Turkey"}},{"type":"Feature","geometry":{"type":"Point","coordinates":[35.11833,42.01381]},"properties":{"name":"ZES Gelincik Özveri Yapı Sokak","coordinate":["42.01381,35.11833"],"municipality":"Sinop Centre","freeformAddress":"Özveri Yapı Sokak 85, 57000 Gelincik","country":"Turkey"}},{"type":"Feature","geometry":{"type":"Point","coordinates":[35.11833,42.01381]},"properties":{"name":"ZES Gelincik Özveri Yapı Sokak","coordinate":["42.01381,35.11833"],"municipality":"Sinop Centre","freeformAddress":"Özveri Yapı Sokak 85, 57000 Gelincik","country":"Turkey"}},{"type":"Feature","geometry":{"type":"Point","coordinates":[27.58936,41.28164]},"properties":{"name":"ZES İstanbul-Edirne Yolu","coordinate":["41.28164,27.58936"],"municipality":"Kirklareli Centre","freeformAddress":"Kirklareli Centre (Luleburgaz)","country":"Turkey"}},{"type":"Feature","geometry":{"type":"Point","coordinates":[27.96728,41.3209]},"properties":{"name":"ZES İnönü","coordinate":["41.3209,27.96728"],"municipality":"Tekirdag","freeformAddress":"59510 İnönü","country":"Turkey"}},{"type":"Feature","geometry":{"type":"Point","coordinates":[27.9792,41.3189]},"properties":{"name":"ZES İsmet Paşa 31. Sokak","coordinate":["41.3189,27.9792"],"municipality":"Tekirdag","freeformAddress":"31. Sokak, 59510 İsmet Paşa","country":"Turkey"}},{"type":"Feature","geometry":{"type":"Point","coordinates":[42.12732,42.5191]},"properties":{"name":"ჩხოროწყუ","coordinate":["42.5191,42.12732"],"municipality":"ჩხოროწყუ","freeformAddress":"ჩხოროწყუ","country":"Georgia"}},{"type":"Feature","geometry":{"type":"Point","coordinates":[27.58936,41.28164]},"properties":{"name":"ZES İstanbul-Edirne Yolu","coordinate":["41.28164,27.58936"],"municipality":"Kirklareli Centre","freeformAddress":"Kirklareli Centre (Luleburgaz)","country":"Turkey"}},{"type":"Feature","geometry":{"type":"Point","coordinates":[27.9792,41.3189]},"properties":{"name":"ZES İsmet Paşa 31. Sokak","coordinate":["41.3189,27.9792"],"municipality":"Tekirdag","freeformAddress":"31. Sokak, 59510 İsmet Paşa","country":"Turkey"}},{"type":"Feature","geometry":{"type":"Point","coordinates":[27.96728,41.3209]},"properties":{"name":"ZES İnönü","coordinate":["41.3209,27.96728"],"municipality":"Tekirdag","freeformAddress":"59510 İnönü","country":"Turkey"}},{"type":"Feature","geometry":{"type":"Point","coordinates":[41.86118,42.48997]},"properties":{"name":"ზუგდიდი","coordinate":["42.48997,41.86118"],"municipality":"ზუგდიდი","freeformAddress":"ზუგდიდი","country":"Georgia"}},{"type":"Feature","geometry":{"type":"Point","coordinates":[28.70234,41.24524]},"properties":{"name":"Eşarj Tayakadin Kuzey Marmara Otoyolu","coordinate":["41.24524,28.70234"],"municipality":"Istanbul","freeformAddress":"Kuzey Marmara Otoyolu, 34283 Tayakadin","country":"Turkey"}},{"type":"Feature","geometry":{"type":"Point","coordinates":[28.70126,41.24531]},"properties":{"name":"Eşarj Tayakadin Kuzey Marmara Otoyolu","coordinate":["41.24531,28.70126"],"municipality":"Istanbul","freeformAddress":"Kuzey Marmara Otoyolu, 34283 Tayakadin","country":"Turkey"}},{"type":"Feature","geometry":{"type":"Point","coordinates":[28.8092,41.238]},"properties":{"name":"ZES İhsaniye İhsaniye İstanbul Caddesi","coordinate":["41.238,28.8092"],"municipality":"Istanbul","freeformAddress":"İhsaniye İstanbul Caddesi, 34076 İhsaniye","country":"Turkey"}},{"type":"Feature","geometry":{"type":"Point","coordinates":[32.32307,41.57301]},"properties":{"name":"ZES Gerede-Bartın Yolu","coordinate":["41.57301,32.32307"],"municipality":"Bartin Centre","freeformAddress":"Bartin Centre","country":"Turkey"}},{"type":"Feature","geometry":{"type":"Point","coordinates":[32.32302,41.61502]},"properties":{"name":"ZES Şiremirçavuş Cumhuriyet Caddesi","coordinate":["41.61502,32.32302"],"municipality":"Bartin Centre","freeformAddress":"Cumhuriyet Caddesi, 74110 Şiremirçavuş","country":"Turkey"}},{"type":"Feature","geometry":{"type":"Point","coordinates":[27.86304,41.14243]},"properties":{"name":"Eşarj Önerler","coordinate":["41.14243,27.86304"],"municipality":"Tekirdag","freeformAddress":"59860 Önerler","country":"Turkey"}},{"type":"Feature","geometry":{"type":"Point","coordinates":[27.84967,41.14607]},"properties":{"name":"ZES Zafer Bülent Ecevit Bulvarı","coordinate":["41.14607,27.84967"],"municipality":"Tekirdag","freeformAddress":"Bülent Ecevit Bulvarı, 59850 Zafer","country":"Turkey"}},{"type":"Feature","geometry":{"type":"Point","coordinates":[27.8344,41.15018]},"properties":{"name":"ZES Alipaşa 19 Mayıs Caddesi","coordinate":["41.15018,27.8344"],"municipality":"Tekirdag","freeformAddress":"19 Mayıs Caddesi 19, 59850 Alipaşa","country":"Turkey"}},{"type":"Feature","geometry":{"type":"Point","coordinates":[28.74802,41.17774]},"properties":{"name":"ZES Anadolu Eski Edirne Caddesi","coordinate":["41.17774,28.74802"],"municipality":"Istanbul","freeformAddress":"Eski Edirne Caddesi, 34275 Anadolu","country":"Turkey"}},{"type":"Feature","geometry":{"type":"Point","coordinates":[28.82258,41.19874]},"properties":{"name":"Eşarj Pirinççi","coordinate":["41.19874,28.82258"],"municipality":"Istanbul","freeformAddress":"34076 Pirinççi","country":"Turkey"}},{"type":"Feature","geometry":{"type":"Point","coordinates":[28.8227,41.19825]},"properties":{"name":"Eşarj Pirinççi","coordinate":["41.19825,28.8227"],"municipality":"Istanbul","freeformAddress":"34076 Pirinççi","country":"Turkey"}},{"type":"Feature","geometry":{"type":"Point","coordinates":[28.82263,41.19819]},"properties":{"name":"ZES Pirinççi","coordinate":["41.19819,28.82263"],"municipality":"Istanbul","freeformAddress":"34076 Pirinççi","country":"Turkey"}},{"type":"Feature","geometry":{"type":"Point","coordinates":[28.82561,41.19701]},"properties":{"name":"Eşarj Pirinççi","coordinate":["41.19701,28.82561"],"municipality":"Istanbul","freeformAddress":"34076 Pirinççi","country":"Turkey"}},{"type":"Feature","geometry":{"type":"Point","coordinates":[28.82616,41.19627]},"properties":{"name":"Eşarj Pirinççi","coordinate":["41.19627,28.82616"],"municipality":"Istanbul","freeformAddress":"34076 Pirinççi","country":"Turkey"}},{"type":"Feature","geometry":{"type":"Point","coordinates":[28.8259,41.1957]},"properties":{"name":"ZES Pirinççi","coordinate":["41.1957,28.8259"],"municipality":"Istanbul","freeformAddress":"34076 Pirinççi","country":"Turkey"}},{"type":"Feature","geometry":{"type":"Point","coordinates":[28.8092,41.238]},"properties":{"name":"ZES İhsaniye İhsaniye İstanbul Caddesi","coordinate":["41.238,28.8092"],"municipality":"Istanbul","freeformAddress":"İhsaniye İstanbul Caddesi, 34076 İhsaniye","country":"Turkey"}},{"type":"Feature","geometry":{"type":"Point","coordinates":[28.90753,41.23597]},"properties":{"name":"ZES Çiftalan Kuzey Marmara Otoyolu","coordinate":["41.23597,28.90753"],"municipality":"Istanbul","freeformAddress":"Kuzey Marmara Otoyolu, 34076 Çiftalan","country":"Turkey"}},{"type":"Feature","geometry":{"type":"Point","coordinates":[28.88432,41.1789]},"properties":{"name":"GERSAN Göktürk Merkez 2.Kayın Sokak","coordinate":["41.1789,28.88432"],"municipality":"Istanbul","freeformAddress":"2.Kayın Sokak, 34077 Göktürk Merkez","country":"Turkey"}},{"type":"Feature","geometry":{"type":"Point","coordinates":[29.03239,41.21735]},"properties":{"name":"Eşarj Zekeriyaköy 1. Cadde","coordinate":["41.21735,29.03239"],"municipality":"Istanbul","freeformAddress":"1. Cadde 9, 34450 Zekeriyaköy","country":"Turkey"}},{"type":"Feature","geometry":{"type":"Point","coordinates":[29.03371,41.21381]},"properties":{"name":"ZES Zekeriyaköy Kilyos Caddesi","coordinate":["41.21381,29.03371"],"municipality":"Istanbul","freeformAddress":"Kilyos Caddesi, 34450 Zekeriyaköy","country":"Turkey"}},{"type":"Feature","geometry":{"type":"Point","coordinates":[29.03703,41.22367]},"properties":{"name":"DMA Uskumruköy","coordinate":["41.22367,29.03703"],"municipality":"Istanbul","freeformAddress":"34450 Uskumruköy","country":"Turkey"}},{"type":"Feature","geometry":{"type":"Point","coordinates":[29.0351,41.19341]},"properties":{"name":"ZES Zekeriyaköy Kilyos Caddesi","coordinate":["41.19341,29.0351"],"municipality":"Istanbul","freeformAddress":"Kilyos Caddesi, 34450 Zekeriyaköy","country":"Turkey"}},{"type":"Feature","geometry":{"type":"Point","coordinates":[29.21496,41.21852]},"properties":{"name":"GERSAN Riva Riva Caddesi","coordinate":["41.21852,29.21496"],"municipality":"Istanbul","freeformAddress":"Riva Caddesi, 34829 Riva","country":"Turkey"}},{"type":"Feature","geometry":{"type":"Point","coordinates":[31.76381,41.45485]},"properties":{"name":"ZES İncivez Alaplı-Zonguldak Yolu","coordinate":["41.45485,31.76381"],"municipality":"Zonguldak Centre","freeformAddress":"Alaplı-Zonguldak Yolu 130, 67980 İncivez","country":"Turkey"}},{"type":"Feature","geometry":{"type":"Point","coordinates":[25.87944,40.85527]},"properties":{"name":"Αλεξανδρούπολη","coordinate":["40.85527,25.87944"],"municipality":"Αλεξανδρούπολη","freeformAddress":"68132 Αλεξανδρούπολη","country":"Greece"}},{"type":"Feature","geometry":{"type":"Point","coordinates":[25.92361,40.85625]},"properties":{"name":"Αλεξανδρούπολη","coordinate":["40.85625,25.92361"],"municipality":"Αλεξανδρούπολη","freeformAddress":"68150 Αλεξανδρούπολη","country":"Greece"}},{"type":"Feature","geometry":{"type":"Point","coordinates":[28.25125,41.07725]},"properties":{"name":"ZES Yeni","coordinate":["41.07725,28.25125"],"municipality":"Istanbul","freeformAddress":"34570 Yeni","country":"Turkey"}},{"type":"Feature","geometry":{"type":"Point","coordinates":[28.28106,41.07]},"properties":{"name":"ZES Cumhuriyet","coordinate":["41.07,28.28106"],"municipality":"Istanbul","freeformAddress":"34570 Cumhuriyet","country":"Turkey"}},{"type":"Feature","geometry":{"type":"Point","coordinates":[28.64086,41.13268]},"properties":{"name":"ZES Ömerli Hakkı İleri Caddesi","coordinate":["41.13268,28.64086"],"municipality":"Istanbul","freeformAddress":"Hakkı İleri Caddesi, 34555 Ömerli","country":"Turkey"}},{"type":"Feature","geometry":{"type":"Point","coordinates":[28.64655,41.09166]},"properties":{"name":"GERSAN Bahçeşehir 2. Kisim","coordinate":["41.09166,28.64655"],"municipality":"Istanbul","freeformAddress":"34488 Bahçeşehir 2. Kisim","country":"Turkey"}},{"type":"Feature","geometry":{"type":"Point","coordinates":[28.65095,41.08693]},"properties":{"name":"GERSAN Bahçeşehir 2. Kisim Mercedes Bulvarı","coordinate":["41.08693,28.65095"],"municipality":"Istanbul","freeformAddress":"Mercedes Bulvarı, 34488 Bahçeşehir 2. Kisim","country":"Turkey"}},{"type":"Feature","geometry":{"type":"Point","coordinates":[28.76684,41.12041]},"properties":{"name":"GERSAN Kayabaşi Kayaşehir Bulvarı","coordinate":["41.12041,28.76684"],"municipality":"Istanbul","freeformAddress":"Kayaşehir Bulvarı, 34494 Kayabaşi","country":"Turkey"}},{"type":"Feature","geometry":{"type":"Point","coordinates":[28.76883,41.12181]},"properties":{"name":"GERSAN Kayabaşi Kayaşehir Bulvarı","coordinate":["41.12181,28.76883"],"municipality":"Istanbul","freeformAddress":"Kayaşehir Bulvarı, 34494 Kayabaşi","country":"Turkey"}},{"type":"Feature","geometry":{"type":"Point","coordinates":[28.76803,41.11769]},"properties":{"name":"GERSAN Kayabaşi Gazi Yaşargil Caddesi","coordinate":["41.11769,28.76803"],"municipality":"Istanbul","freeformAddress":"Gazi Yaşargil Caddesi, 34494 Kayabaşi","country":"Turkey"}},{"type":"Feature","geometry":{"type":"Point","coordinates":[28.77152,41.12595]},"properties":{"name":"GERSAN Kayabaşi Kayaşehir Bulvarı","coordinate":["41.12595,28.77152"],"municipality":"Istanbul","freeformAddress":"Kayaşehir Bulvarı, 34494 Kayabaşi","country":"Turkey"}},{"type":"Feature","geometry":{"type":"Point","coordinates":[28.77031,41.11532]},"properties":{"name":"GERSAN Kayabaşi Evliya Çelebi Caddesi","coordinate":["41.11532,28.77031"],"municipality":"Istanbul","freeformAddress":"Evliya Çelebi Caddesi, 34494 Kayabaşi","country":"Turkey"}},{"type":"Feature","geometry":{"type":"Point","coordinates":[28.77152,41.12595]},"properties":{"name":"GERSAN Kayabaşi Kayaşehir Bulvarı","coordinate":["41.12595,28.77152"],"municipality":"Istanbul","freeformAddress":"Kayaşehir Bulvarı, 34494 Kayabaşi","country":"Turkey"}},{"type":"Feature","geometry":{"type":"Point","coordinates":[28.76883,41.12181]},"properties":{"name":"GERSAN Kayabaşi Kayaşehir Bulvarı","coordinate":["41.12181,28.76883"],"municipality":"Istanbul","freeformAddress":"Kayaşehir Bulvarı, 34494 Kayabaşi","country":"Turkey"}},{"type":"Feature","geometry":{"type":"Point","coordinates":[28.77031,41.11532]},"properties":{"name":"GERSAN Kayabaşi Evliya Çelebi Caddesi","coordinate":["41.11532,28.77031"],"municipality":"Istanbul","freeformAddress":"Evliya Çelebi Caddesi, 34494 Kayabaşi","country":"Turkey"}},{"type":"Feature","geometry":{"type":"Point","coordinates":[28.8034,41.09524]},"properties":{"name":"DMA Başak Abdül Hamit Han Caddesi","coordinate":["41.09524,28.8034"],"municipality":"Istanbul","freeformAddress":"Abdül Hamit Han Caddesi, 34480 Başak","country":"Turkey"}},{"type":"Feature","geometry":{"type":"Point","coordinates":[28.80108,41.09571]},"properties":{"name":"GERSAN Başak 13. Cadde","coordinate":["41.09571,28.80108"],"municipality":"Istanbul","freeformAddress":"13. Cadde, 34480 Başak","country":"Turkey"}},{"type":"Feature","geometry":{"type":"Point","coordinates":[28.76684,41.12041]},"properties":{"name":"GERSAN Kayabaşi Kayaşehir Bulvarı","coordinate":["41.12041,28.76684"],"municipality":"Istanbul","freeformAddress":"Kayaşehir Bulvarı, 34494 Kayabaşi","country":"Turkey"}},{"type":"Feature","geometry":{"type":"Point","coordinates":[28.76803,41.11769]},"properties":{"name":"GERSAN Kayabaşi Gazi Yaşargil Caddesi","coordinate":["41.11769,28.76803"],"municipality":"Istanbul","freeformAddress":"Gazi Yaşargil Caddesi, 34494 Kayabaşi","country":"Turkey"}},{"type":"Feature","geometry":{"type":"Point","coordinates":[28.79991,41.09523]},"properties":{"name":"bd oto Başak 13. Cadde","coordinate":["41.09523,28.79991"],"municipality":"Istanbul","freeformAddress":"13. Cadde 34, 34480 Başak","country":"Turkey"}},{"type":"Feature","geometry":{"type":"Point","coordinates":[28.78751,41.09966]},"properties":{"name":"GERSAN Başakşehir Özçelik Sokak","coordinate":["41.09966,28.78751"],"municipality":"Istanbul","freeformAddress":"Özçelik Sokak, 34480 Başakşehir","country":"Turkey"}},{"type":"Feature","geometry":{"type":"Point","coordinates":[28.88432,41.1789]},"properties":{"name":"GERSAN Göktürk Merkez 2.Kayın Sokak","coordinate":["41.1789,28.88432"],"municipality":"Istanbul","freeformAddress":"2.Kayın Sokak, 34077 Göktürk Merkez","country":"Turkey"}},{"type":"Feature","geometry":{"type":"Point","coordinates":[28.99055,41.17567]},"properties":{"name":"ZES Bahçeköy Merkez Valide Sultan Caddesi","coordinate":["41.17567,28.99055"],"municipality":"Istanbul","freeformAddress":"Valide Sultan Caddesi, 34473 Bahçeköy Merkez","country":"Turkey"}},{"type":"Feature","geometry":{"type":"Point","coordinates":[29.01906,41.11809]},"properties":{"name":"bd oto Maslak 23. Sokak","coordinate":["41.11809,29.01906"],"municipality":"Istanbul","freeformAddress":"23. Sokak 789-790, 34398 Maslak","country":"Turkey"}},{"type":"Feature","geometry":{"type":"Point","coordinates":[29.0205,41.11627]},"properties":{"name":"bd oto Maslak 46. Sokak","coordinate":["41.11627,29.0205"],"municipality":"Istanbul","freeformAddress":"46. Sokak P/28, 34398 Maslak","country":"Turkey"}},{"type":"Feature","geometry":{"type":"Point","coordinates":[29.04156,41.12219]},"properties":{"name":"DMA İstinye Elif Sokak","coordinate":["41.12219,29.04156"],"municipality":"Istanbul","freeformAddress":"Elif Sokak, 34460 İstinye","country":"Turkey"}},{"type":"Feature","geometry":{"type":"Point","coordinates":[29.02008,41.113]},"properties":{"name":"GERSAN Maslak Ahi Evran Caddesi","coordinate":["41.113,29.02008"],"municipality":"Istanbul","freeformAddress":"Ahi Evran Caddesi, 34398 Maslak","country":"Turkey"}},{"type":"Feature","geometry":{"type":"Point","coordinates":[29.05719,41.13988]},"properties":{"name":"Eşarj Tarabya Haydar Aliyev Caddesi","coordinate":["41.13988,29.05719"],"municipality":"Istanbul","freeformAddress":"Haydar Aliyev Caddesi 154, 34457 Tarabya","country":"Turkey"}},{"type":"Feature","geometry":{"type":"Point","coordinates":[28.98429,41.11466]},"properties":{"name":"ZES Ayazağa Kemerburgaz Caddesi","coordinate":["41.11466,28.98429"],"municipality":"Istanbul","freeformAddress":"Kemerburgaz Caddesi, 34396 Ayazağa","country":"Turkey"}},{"type":"Feature","geometry":{"type":"Point","coordinates":[29.01981,41.11083]},"properties":{"name":"DMA Maslak Zümrüt Sokak","coordinate":["41.11083,29.01981"],"municipality":"Istanbul","freeformAddress":"Zümrüt Sokak, 34398 Maslak","country":"Turkey"}},{"type":"Feature","geometry":{"type":"Point","coordinates":[29.00796,41.10843]},"properties":{"name":"Eşarj Huzur Maslak Ayazağa Caddesi","coordinate":["41.10843,29.00796"],"municipality":"Istanbul","freeformAddress":"Maslak Ayazağa Caddesi 4, 34396 Huzur","country":"Turkey"}},{"type":"Feature","geometry":{"type":"Point","coordinates":[29.04773,41.11998]},"properties":{"name":"Eşarj Poligon Sarıyer Caddesi","coordinate":["41.11998,29.04773"],"municipality":"Istanbul","freeformAddress":"Sarıyer Caddesi 77, 34460 Poligon","country":"Turkey"}},{"type":"Feature","geometry":{"type":"Point","coordinates":[29.04891,41.12065]},"properties":{"name":"İstinye Balabandere Caddesi","coordinate":["41.12065,29.04891"],"municipality":"Istanbul","freeformAddress":"Balabandere Caddesi 68, 34460 İstinye","country":"Turkey"}},{"type":"Feature","geometry":{"type":"Point","coordinates":[28.96814,41.11826]},"properties":{"name":"bd oto Ayazağa Kemerburgaz Caddesi","coordinate":["41.11826,28.96814"],"municipality":"Istanbul","freeformAddress":"Kemerburgaz Caddesi 41, 34396 Ayazağa","country":"Turkey"}},{"type":"Feature","geometry":{"type":"Point","coordinates":[28.98755,41.10867]},"properties":{"name":"Eşarj Ayazağa Cendere Caddesi","coordinate":["41.10867,28.98755"],"municipality":"Istanbul","freeformAddress":"Cendere Caddesi 109, 34396 Ayazağa","country":"Turkey"}},{"type":"Feature","geometry":{"type":"Point","coordinates":[29.05719,41.13988]},"properties":{"name":"Eşarj Tarabya Haydar Aliyev Caddesi","coordinate":["41.13988,29.05719"],"municipality":"Istanbul","freeformAddress":"Haydar Aliyev Caddesi 154, 34457 Tarabya","country":"Turkey"}},{"type":"Feature","geometry":{"type":"Point","coordinates":[32.08846,41.4087]},"properties":{"name":"ZES İstasyon","coordinate":["41.4087,32.08846"],"municipality":"Zonguldak Centre","freeformAddress":"67900 İstasyon","country":"Turkey"}},{"type":"Feature","geometry":{"type":"Point","coordinates":[32.08846,41.4087]},"properties":{"name":"ZES İstasyon","coordinate":["41.4087,32.08846"],"municipality":"Zonguldak Centre","freeformAddress":"67900 İstasyon","country":"Turkey"}},{"type":"Feature","geometry":{"type":"Point","coordinates":[26.64221,40.87505]},"properties":{"name":"Eşarj İspat Cami Keşan-Malkara Yolu","coordinate":["40.87505,26.64221"],"municipality":"Edirne Centre","freeformAddress":"Keşan-Malkara Yolu, 22900 İspat Cami","country":"Turkey"}},{"type":"Feature","geometry":{"type":"Point","coordinates":[26.62574,40.83777]},"properties":{"name":"ZES Aşağı Zaferiye Edirne-Çanakkale Yolu","coordinate":["40.83777,26.62574"],"municipality":"Edirne Centre","freeformAddress":"Edirne-Çanakkale Yolu, 22900 Aşağı Zaferiye","country":"Turkey"}},{"type":"Feature","geometry":{"type":"Point","coordinates":[27.46645,40.94556]},"properties":{"name":"ZES Altınova Tekirdağ-Malkara Yolu","coordinate":["40.94556,27.46645"],"municipality":"Tekirdag","freeformAddress":"Tekirdağ-Malkara Yolu, 59000 Altınova","country":"Turkey"}},{"type":"Feature","geometry":{"type":"Point","coordinates":[28.54967,41.01442]},"properties":{"name":"Eşarj Mimar Sinan Merkez D-100. Karayolu","coordinate":["41.01442,28.54967"],"municipality":"Istanbul","freeformAddress":"D-100. Karayolu 77, 34535 Mimar Sinan Merkez","country":"Turkey"}},{"type":"Feature","geometry":{"type":"Point","coordinates":[28.66675,41.05542]},"properties":{"name":"Eşarj Koza","coordinate":["41.05542,28.66675"],"municipality":"Istanbul","freeformAddress":"34538 Koza","country":"Turkey"}},{"type":"Feature","geometry":{"type":"Point","coordinates":[28.66675,41.05542]},"properties":{"name":"Eşarj Koza 1655. Sokak","coordinate":["41.05542,28.66675"],"municipality":"Istanbul","freeformAddress":"1655. Sokak 6, 34538 Koza","country":"Turkey"}},{"type":"Feature","geometry":{"type":"Point","coordinates":[28.67166,41.04945]},"properties":{"name":"Eşarj Selahaddin Eyyubi Erzurum Kongre Caddesi","coordinate":["41.04945,28.67166"],"municipality":"Istanbul","freeformAddress":"Erzurum Kongre Caddesi 6, 34517 Selahaddin Eyyubi","country":"Turkey"}},{"type":"Feature","geometry":{"type":"Point","coordinates":[28.68629,41.05449]},"properties":{"name":"GERSAN Yeşilkent Bahçeşehir Yanyol Caddesi","coordinate":["41.05449,28.68629"],"municipality":"Istanbul","freeformAddress":"Bahçeşehir Yanyol Caddesi, 34325 Yeşilkent","country":"Turkey"}},{"type":"Feature","geometry":{"type":"Point","coordinates":[28.67166,41.04945]},"properties":{"name":"Eşarj Selahaddin Eyyubi Erzurum Kongre Caddesi","coordinate":["41.04945,28.67166"],"municipality":"Istanbul","freeformAddress":"Erzurum Kongre Caddesi 6, 34517 Selahaddin Eyyubi","country":"Turkey"}},{"type":"Feature","geometry":{"type":"Point","coordinates":[28.76437,41.04003]},"properties":{"name":"GERSAN Atakent 219. Sokak","coordinate":["41.04003,28.76437"],"municipality":"Istanbul","freeformAddress":"219. Sokak, 34307 Atakent","country":"Turkey"}},{"type":"Feature","geometry":{"type":"Point","coordinates":[28.66675,41.05542]},"properties":{"name":"Eşarj Koza","coordinate":["41.05542,28.66675"],"municipality":"Istanbul","freeformAddress":"34538 Koza","country":"Turkey"}},{"type":"Feature","geometry":{"type":"Point","coordinates":[28.66675,41.05542]},"properties":{"name":"Eşarj Koza 1655. Sokak","coordinate":["41.05542,28.66675"],"municipality":"Istanbul","freeformAddress":"1655. Sokak 6, 34538 Koza","country":"Turkey"}},{"type":"Feature","geometry":{"type":"Point","coordinates":[28.77593,41.06591]},"properties":{"name":"GERSAN Ziya Gökalp Ağaoğlu My World Europe Yolu","coordinate":["41.06591,28.77593"],"municipality":"Istanbul","freeformAddress":"Ağaoğlu My World Europe Yolu, 34490 Ziya Gökalp","country":"Turkey"}},{"type":"Feature","geometry":{"type":"Point","coordinates":[28.80814,41.06026]},"properties":{"name":"ZES Mehmet Akif İnönü Caddesi","coordinate":["41.06026,28.80814"],"municipality":"Istanbul","freeformAddress":"İnönü Caddesi, 34307 Mehmet Akif","country":"Turkey"}},{"type":"Feature","geometry":{"type":"Point","coordinates":[28.80726,41.07736]},"properties":{"name":"DMA Ziya Gökalp Güngören-Bağcılar Sanayi Sitesi Yolu","coordinate":["41.07736,28.80726"],"municipality":"Istanbul","freeformAddress":"Güngören-Bağcılar Sanayi Sitesi Yolu, 34490 Ziya Gökalp","country":"Turkey"}},{"type":"Feature","geometry":{"type":"Point","coordinates":[28.77593,41.06591]},"properties":{"name":"GERSAN Ziya Gökalp Ağaoğlu My World Europe Yolu","coordinate":["41.06591,28.77593"],"municipality":"Istanbul","freeformAddress":"Ağaoğlu My World Europe Yolu, 34490 Ziya Gökalp","country":"Turkey"}},{"type":"Feature","geometry":{"type":"Point","coordinates":[28.8034,41.09524]},"properties":{"name":"DMA Başak Abdül Hamit Han Caddesi","coordinate":["41.09524,28.8034"],"municipality":"Istanbul","freeformAddress":"Abdül Hamit Han Caddesi, 34480 Başak","country":"Turkey"}},{"type":"Feature","geometry":{"type":"Point","coordinates":[28.79991,41.09523]},"properties":{"name":"bd oto Başak 13. Cadde","coordinate":["41.09523,28.79991"],"municipality":"Istanbul","freeformAddress":"13. Cadde 34, 34480 Başak","country":"Turkey"}},{"type":"Feature","geometry":{"type":"Point","coordinates":[28.80108,41.09571]},"properties":{"name":"GERSAN Başak 13. Cadde","coordinate":["41.09571,28.80108"],"municipality":"Istanbul","freeformAddress":"13. Cadde, 34480 Başak","country":"Turkey"}},{"type":"Feature","geometry":{"type":"Point","coordinates":[28.81986,41.02207]},"properties":{"name":"bd oto Bağlar Yalçın Koreş Caddesi","coordinate":["41.02207,28.81986"],"municipality":"Istanbul","freeformAddress":"Yalçın Koreş Caddesi 22, 34209 Bağlar","country":"Turkey"}},{"type":"Feature","geometry":{"type":"Point","coordinates":[28.76437,41.04003]},"properties":{"name":"GERSAN Atakent 219. Sokak","coordinate":["41.04003,28.76437"],"municipality":"Istanbul","freeformAddress":"219. Sokak, 34307 Atakent","country":"Turkey"}},{"type":"Feature","geometry":{"type":"Point","coordinates":[28.78751,41.09966]},"properties":{"name":"GERSAN Başakşehir Özçelik Sokak","coordinate":["41.09966,28.78751"],"municipality":"Istanbul","freeformAddress":"Özçelik Sokak, 34480 Başakşehir","country":"Turkey"}},{"type":"Feature","geometry":{"type":"Point","coordinates":[28.81524,41.0174]},"properties":{"name":"Eşarj Yenibosna Merkez Kavak Sokak","coordinate":["41.0174,28.81524"],"municipality":"Istanbul","freeformAddress":"Kavak Sokak 24, 34197 Yenibosna Merkez","country":"Turkey"}},{"type":"Feature","geometry":{"type":"Point","coordinates":[28.89916,41.07815]},"properties":{"name":"Eşarj Yeni Mahalle Cebeci Caddesi","coordinate":["41.07815,28.89916"],"municipality":"Istanbul","freeformAddress":"Cebeci Caddesi, 34250 Yeni Mahalle","country":"Turkey"}},{"type":"Feature","geometry":{"type":"Point","coordinates":[28.90888,41.08773]},"properties":{"name":"GERSAN Mevlana 885. Sokak","coordinate":["41.08773,28.90888"],"municipality":"Istanbul","freeformAddress":"885. Sokak 3, 34255 Mevlana","country":"Turkey"}},{"type":"Feature","geometry":{"type":"Point","coordinates":[28.89723,41.08994]},"properties":{"name":"GERSAN Karayollari Abdi İpekçi Caddesi","coordinate":["41.08994,28.89723"],"municipality":"Istanbul","freeformAddress":"Abdi İpekçi Caddesi, 34255 Karayollari","country":"Turkey"}},{"type":"Feature","geometry":{"type":"Point","coordinates":[28.89778,41.04565]},"properties":{"name":"bd oto Kocatepe","coordinate":["41.04565,28.89778"],"municipality":"Istanbul","freeformAddress":"34045 Kocatepe","country":"Turkey"}},{"type":"Feature","geometry":{"type":"Point","coordinates":[28.91311,41.04421]},"properties":{"name":"ZES Yenidoğan Erciyes Sokak","coordinate":["41.04421,28.91311"],"municipality":"Istanbul","freeformAddress":"Erciyes Sokak, 34040 Yenidoğan","country":"Turkey"}},{"type":"Feature","geometry":{"type":"Point","coordinates":[28.88502,41.09077]},"properties":{"name":"Eşarj Cumhuriyet Dersaadet Caddesi","coordinate":["41.09077,28.88502"],"municipality":"Istanbul","freeformAddress":"Dersaadet Caddesi 2, 34265 Cumhuriyet","country":"Turkey"}},{"type":"Feature","geometry":{"type":"Point","coordinates":[28.94383,41.05894]},"properties":{"name":"ZES Merkez Silahtarağa Caddesi","coordinate":["41.05894,28.94383"],"municipality":"Istanbul","freeformAddress":"Silahtarağa Caddesi, 34050 Merkez","country":"Turkey"}},{"type":"Feature","geometry":{"type":"Point","coordinates":[28.93737,41.0908]},"properties":{"name":"ZES Güzeltepe Finanskent Konutları Yolu","coordinate":["41.0908,28.93737"],"municipality":"Istanbul","freeformAddress":"Finanskent Konutları Yolu, 34060 Güzeltepe","country":"Turkey"}},{"type":"Feature","geometry":{"type":"Point","coordinates":[28.9205,41.0359]},"properties":{"name":"ZES Topçular Demirkapı Caddesi","coordinate":["41.0359,28.9205"],"municipality":"Istanbul","freeformAddress":"Demirkapı Caddesi, 34055 Topçular","country":"Turkey"}},{"type":"Feature","geometry":{"type":"Point","coordinates":[28.87448,41.04464]},"properties":{"name":"GERSAN Kazim Karabekir 1043. Sokak","coordinate":["41.04464,28.87448"],"municipality":"Istanbul","freeformAddress":"1043. Sokak, 34225 Kazim Karabekir","country":"Turkey"}},{"type":"Feature","geometry":{"type":"Point","coordinates":[28.96565,41.05852]},"properties":{"name":"Eşarj Halil Rifat Paşa Taşkızak Sokak","coordinate":["41.05852,28.96565"],"municipality":"Istanbul","freeformAddress":"Taşkızak Sokak 274, 34384 Halil Rifat Paşa","country":"Turkey"}},{"type":"Feature","geometry":{"type":"Point","coordinates":[28.96573,41.05861]},"properties":{"name":"Eşarj Halil Rifat Paşa Darülaceze Caddesi","coordinate":["41.05861,28.96573"],"municipality":"Istanbul","freeformAddress":"Darülaceze Caddesi 274, 34384 Halil Rifat Paşa","country":"Turkey"}},{"type":"Feature","geometry":{"type":"Point","coordinates":[28.99796,41.07594]},"properties":{"name":"GERSAN Gülbahar Galata Deresi Caddesi","coordinate":["41.07594,28.99796"],"municipality":"Istanbul","freeformAddress":"Galata Deresi Caddesi, 34394 Gülbahar","country":"Turkey"}},{"type":"Feature","geometry":{"type":"Point","coordinates":[29.01131,41.07818]},"properties":{"name":"Eşarj Esentepe Büyükdere Caddesi","coordinate":["41.07818,29.01131"],"municipality":"Istanbul","freeformAddress":"Büyükdere Caddesi 185, 34394 Esentepe","country":"Turkey"}},{"type":"Feature","geometry":{"type":"Point","coordinates":[29.009,41.08193]},"properties":{"name":"Eşarj Esentepe Büyükdere Caddesi","coordinate":["41.08193,29.009"],"municipality":"Istanbul","freeformAddress":"Büyükdere Caddesi 209, 34394 Esentepe","country":"Turkey"}},{"type":"Feature","geometry":{"type":"Point","coordinates":[29.00906,41.08191]},"properties":{"name":"Eşarj Esentepe Eski Büyükdere Caddesi","coordinate":["41.08191,29.00906"],"municipality":"Istanbul","freeformAddress":"Eski Büyükdere Caddesi 209 4, 34394 Esentepe","country":"Turkey"}},{"type":"Feature","geometry":{"type":"Point","coordinates":[29.0122,41.07581]},"properties":{"name":"ZES Esentepe","coordinate":["41.07581,29.0122"],"municipality":"Istanbul","freeformAddress":"34394 Esentepe","country":"Turkey"}},{"type":"Feature","geometry":{"type":"Point","coordinates":[29.0066,41.08552]},"properties":{"name":"YGE Emniyet Evleri Eski Büyükdere Caddesi","coordinate":["41.08552,29.0066"],"municipality":"Istanbul","freeformAddress":"Eski Büyükdere Caddesi 1, 34415 Emniyet Evleri","country":"Turkey"}},{"type":"Feature","geometry":{"type":"Point","coordinates":[29.00543,41.08577]},"properties":{"name":"bd oto Emniyet Evleri Akarsu Caddesi","coordinate":["41.08577,29.00543"],"municipality":"Istanbul","freeformAddress":"Akarsu Caddesi 11-1, 34415 Emniyet Evleri","country":"Turkey"}},{"type":"Feature","geometry":{"type":"Point","coordinates":[29.01705,41.07898]},"properties":{"name":"GERSAN Levent Sümbül Sokak","coordinate":["41.07898,29.01705"],"municipality":"Istanbul","freeformAddress":"Sümbül Sokak, 34330 Levent","country":"Turkey"}},{"type":"Feature","geometry":{"type":"Point","coordinates":[29.00385,41.06737]},"properties":{"name":"Eşarj Esentepe Büyükdere Caddesi","coordinate":["41.06737,29.00385"],"municipality":"Istanbul","freeformAddress":"Büyükdere Caddesi 121/A, 34394 Esentepe","country":"Turkey"}},{"type":"Feature","geometry":{"type":"Point","coordinates":[28.99716,41.06538]},"properties":{"name":"GERSAN Fulya Garaj Sokak","coordinate":["41.06538,28.99716"],"municipality":"Istanbul","freeformAddress":"Garaj Sokak, 34394 Fulya","country":"Turkey"}},{"type":"Feature","geometry":{"type":"Point","coordinates":[29.00247,41.06401]},"properties":{"name":"Eşarj Gayrettepe Girne Sokak","coordinate":["41.06401,29.00247"],"municipality":"Istanbul","freeformAddress":"Girne Sokak 1, 34349 Gayrettepe","country":"Turkey"}},{"type":"Feature","geometry":{"type":"Point","coordinates":[29.0045,41.0914]},"properties":{"name":"ZES Sultan Selim Eski Büyükdere Caddesi","coordinate":["41.0914,29.0045"],"municipality":"Istanbul","freeformAddress":"Eski Büyükdere Caddesi, 34415 Sultan Selim","country":"Turkey"}},{"type":"Feature","geometry":{"type":"Point","coordinates":[29.016,41.06619]},"properties":{"name":"ZES Levazim Zorlu Center Metro Alt Geçidi","coordinate":["41.06619,29.016"],"municipality":"Istanbul","freeformAddress":"Zorlu Center Metro Alt Geçidi 297, 34340 Levazim","country":"Turkey"}},{"type":"Feature","geometry":{"type":"Point","coordinates":[29.01096,41.06389]},"properties":{"name":"Eşarj Esentepe İrfan Baştuğ Paşa Caddesi","coordinate":["41.06389,29.01096"],"municipality":"Istanbul","freeformAddress":"İrfan Baştuğ Paşa Caddesi, 34394 Esentepe","country":"Turkey"}},{"type":"Feature","geometry":{"type":"Point","coordinates":[28.98542,41.08374]},"properties":{"name":"bd oto Çağlayan Şair Sokak","coordinate":["41.08374,28.98542"],"municipality":"Istanbul","freeformAddress":"Şair Sokak 4, 34403 Çağlayan","country":"Turkey"}},{"type":"Feature","geometry":{"type":"Point","coordinates":[29.0176,41.06685]},"properties":{"name":"ZES Levazim Koru Sokak","coordinate":["41.06685,29.0176"],"municipality":"Istanbul","freeformAddress":"Koru Sokak 2, 34340 Levazim","country":"Turkey"}},{"type":"Feature","geometry":{"type":"Point","coordinates":[28.98558,41.07107]},"properties":{"name":"GERSAN Hürriyet Zembil Sokak","coordinate":["41.07107,28.98558"],"municipality":"Istanbul","freeformAddress":"Zembil Sokak, 34403 Hürriyet","country":"Turkey"}},{"type":"Feature","geometry":{"type":"Point","coordinates":[29.0094,41.06209]},"properties":{"name":"ZES Gayrettepe Pazar Sokak","coordinate":["41.06209,29.0094"],"municipality":"Istanbul","freeformAddress":"Pazar Sokak, 34349 Gayrettepe","country":"Turkey"}},{"type":"Feature","geometry":{"type":"Point","coordinates":[29.0179,41.06533]},"properties":{"name":"ZES Levazim Koru Sokak","coordinate":["41.06533,29.0179"],"municipality":"Istanbul","freeformAddress":"Koru Sokak, 34340 Levazim","country":"Turkey"}},{"type":"Feature","geometry":{"type":"Point","coordinates":[29.02396,41.087]},"properties":{"name":"ZES Akat","coordinate":["41.087,29.02396"],"municipality":"Istanbul","freeformAddress":"34335 Akat","country":"Turkey"}},{"type":"Feature","geometry":{"type":"Point","coordinates":[28.9824,41.0864]},"properties":{"name":"ZES Hamidiye Cendere Caddesi","coordinate":["41.0864,28.9824"],"municipality":"Istanbul","freeformAddress":"Cendere Caddesi, 34406 Hamidiye","country":"Turkey"}},{"type":"Feature","geometry":{"type":"Point","coordinates":[28.97985,41.08453]},"properties":{"name":"GERSAN Merkez","coordinate":["41.08453,28.97985"],"municipality":"Istanbul","freeformAddress":"34406 Merkez","country":"Turkey"}},{"type":"Feature","geometry":{"type":"Point","coordinates":[28.97985,41.08453]},"properties":{"name":"GERSAN Merkez Cendere Caddesi","coordinate":["41.08453,28.97985"],"municipality":"Istanbul","freeformAddress":"Cendere Caddesi 22, 34406 Merkez","country":"Turkey"}},{"type":"Feature","geometry":{"type":"Point","coordinates":[28.9887,41.06166]},"properties":{"name":"ZES 19 Mayis Büyükdere Caddesi","coordinate":["41.06166,28.9887"],"municipality":"Istanbul","freeformAddress":"Büyükdere Caddesi 6, 34360 19 Mayis","country":"Turkey"}},{"type":"Feature","geometry":{"type":"Point","coordinates":[28.98918,41.06103]},"properties":{"name":"Eşarj 19 Mayis 19 Mayıs Caddesi","coordinate":["41.06103,28.98918"],"municipality":"Istanbul","freeformAddress":"19 Mayıs Caddesi 2, 34360 19 Mayis","country":"Turkey"}},{"type":"Feature","geometry":{"type":"Point","coordinates":[28.99083,41.05926]},"properties":{"name":"ZES 19 Mayis Hamidiye Suyu Sokak","coordinate":["41.05926,28.99083"],"municipality":"Istanbul","freeformAddress":"Hamidiye Suyu Sokak, 34360 19 Mayis","country":"Turkey"}},{"type":"Feature","geometry":{"type":"Point","coordinates":[29.00536,41.09895]},"properties":{"name":"Eşarj Huzur Çamlıklar Caddesi","coordinate":["41.09895,29.00536"],"municipality":"Istanbul","freeformAddress":"Çamlıklar Caddesi, 34396 Huzur","country":"Turkey"}},{"type":"Feature","geometry":{"type":"Point","coordinates":[29.00015,41.05421]},"properties":{"name":"Eşarj Dikilitaş Hakkı Yeten Caddesi","coordinate":["41.05421,29.00015"],"municipality":"Istanbul","freeformAddress":"Hakkı Yeten Caddesi, 34349 Dikilitaş","country":"Turkey"}},{"type":"Feature","geometry":{"type":"Point","coordinates":[28.97898,41.06127]},"properties":{"name":"ZES Halide Edip Adivar Akar Caddesi","coordinate":["41.06127,28.97898"],"municipality":"Istanbul","freeformAddress":"Akar Caddesi 6, 34382 Halide Edip Adivar","country":"Turkey"}},{"type":"Feature","geometry":{"type":"Point","coordinates":[29.0285,41.0609]},"properties":{"name":"ZES Ortaköy","coordinate":["41.0609,29.0285"],"municipality":"Istanbul","freeformAddress":"34347 Ortaköy","country":"Turkey"}},{"type":"Feature","geometry":{"type":"Point","coordinates":[28.97947,41.0583]},"properties":{"name":"Eşarj Merkez Silahşör Caddesi","coordinate":["41.0583,28.97947"],"municipality":"Istanbul","freeformAddress":"Silahşör Caddesi 42, 34381 Merkez","country":"Turkey"}},{"type":"Feature","geometry":{"type":"Point","coordinates":[28.97116,41.06683]},"properties":{"name":"bd oto Gürsel Gürbüz Sokak","coordinate":["41.06683,28.97116"],"municipality":"Istanbul","freeformAddress":"Gürbüz Sokak 5, 34400 Gürsel","country":"Turkey"}},{"type":"Feature","geometry":{"type":"Point","coordinates":[29.02346,41.05544]},"properties":{"name":"ZES Ortaköy","coordinate":["41.05544,29.02346"],"municipality":"Istanbul","freeformAddress":"34347 Ortaköy","country":"Turkey"}},{"type":"Feature","geometry":{"type":"Point","coordinates":[28.97586,41.05723]},"properties":{"name":"GERSAN Cumhuriyet İncirli Dede Caddesi","coordinate":["41.05723,28.97586"],"municipality":"Istanbul","freeformAddress":"İncirli Dede Caddesi 1, 34380 Cumhuriyet","country":"Turkey"}},{"type":"Feature","geometry":{"type":"Point","coordinates":[29.00796,41.10843]},"properties":{"name":"Eşarj Huzur Maslak Ayazağa Caddesi","coordinate":["41.10843,29.00796"],"municipality":"Istanbul","freeformAddress":"Maslak Ayazağa Caddesi 4, 34396 Huzur","country":"Turkey"}},{"type":"Feature","geometry":{"type":"Point","coordinates":[29.04542,41.07865]},"properties":{"name":"ZES Bebek Cevdet Paşa Caddesi","coordinate":["41.07865,29.04542"],"municipality":"Istanbul","freeformAddress":"Cevdet Paşa Caddesi, 34342 Bebek","country":"Turkey"}},{"type":"Feature","geometry":{"type":"Point","coordinates":[29.0344,41.0557]},"properties":{"name":"ZES Kuruçeşme Muallim Naci Caddesi","coordinate":["41.0557,29.0344"],"municipality":"Istanbul","freeformAddress":"Muallim Naci Caddesi, 34345 Kuruçeşme","country":"Turkey"}},{"type":"Feature","geometry":{"type":"Point","coordinates":[28.97386,41.10216]},"properties":{"name":"Eşarj Hamidiye Selçuklu Caddesi","coordinate":["41.10216,28.97386"],"municipality":"Istanbul","freeformAddress":"Selçuklu Caddesi 10, 34408 Hamidiye","country":"Turkey"}},{"type":"Feature","geometry":{"type":"Point","coordinates":[28.98755,41.10867]},"properties":{"name":"Eşarj Ayazağa Cendere Caddesi","coordinate":["41.10867,28.98755"],"municipality":"Istanbul","freeformAddress":"Cendere Caddesi 109, 34396 Ayazağa","country":"Turkey"}},{"type":"Feature","geometry":{"type":"Point","coordinates":[29.04702,41.08507]},"properties":{"name":"Eşarj Rumelihisari Boğaziçi Üniversitesi Yolu","coordinate":["41.08507,29.04702"],"municipality":"Istanbul","freeformAddress":"Boğaziçi Üniversitesi Yolu, 34470 Rumelihisari","country":"Turkey"}},{"type":"Feature","geometry":{"type":"Point","coordinates":[28.96573,41.05861]},"properties":{"name":"Eşarj Halil Rifat Paşa Darülaceze Caddesi","coordinate":["41.05861,28.96573"],"municipality":"Istanbul","freeformAddress":"Darülaceze Caddesi 274, 34384 Halil Rifat Paşa","country":"Turkey"}},{"type":"Feature","geometry":{"type":"Point","coordinates":[28.96565,41.05852]},"properties":{"name":"Eşarj Halil Rifat Paşa Taşkızak Sokak","coordinate":["41.05852,28.96565"],"municipality":"Istanbul","freeformAddress":"Taşkızak Sokak 274, 34384 Halil Rifat Paşa","country":"Turkey"}},{"type":"Feature","geometry":{"type":"Point","coordinates":[29.01981,41.11083]},"properties":{"name":"DMA Maslak Zümrüt Sokak","coordinate":["41.11083,29.01981"],"municipality":"Istanbul","freeformAddress":"Zümrüt Sokak, 34398 Maslak","country":"Turkey"}},{"type":"Feature","geometry":{"type":"Point","coordinates":[29.00508,41.0409]},"properties":{"name":"Eşarj Sinanpaşa Hayrettin İskelesi Sokak","coordinate":["41.0409,29.00508"],"municipality":"Istanbul","freeformAddress":"Hayrettin İskelesi Sokak 1, 34353 Sinanpaşa","country":"Turkey"}},{"type":"Feature","geometry":{"type":"Point","coordinates":[29.02008,41.113]},"properties":{"name":"GERSAN Maslak Ahi Evran Caddesi","coordinate":["41.113,29.02008"],"municipality":"Istanbul","freeformAddress":"Ahi Evran Caddesi, 34398 Maslak","country":"Turkey"}},{"type":"Feature","geometry":{"type":"Point","coordinates":[28.98429,41.11466]},"properties":{"name":"ZES Ayazağa Kemerburgaz Caddesi","coordinate":["41.11466,28.98429"],"municipality":"Istanbul","freeformAddress":"Kemerburgaz Caddesi, 34396 Ayazağa","country":"Turkey"}},{"type":"Feature","geometry":{"type":"Point","coordinates":[29.0205,41.11627]},"properties":{"name":"bd oto Maslak 46. Sokak","coordinate":["41.11627,29.0205"],"municipality":"Istanbul","freeformAddress":"46. Sokak P/28, 34398 Maslak","country":"Turkey"}},{"type":"Feature","geometry":{"type":"Point","coordinates":[29.01906,41.11809]},"properties":{"name":"bd oto Maslak 23. Sokak","coordinate":["41.11809,29.01906"],"municipality":"Istanbul","freeformAddress":"23. Sokak 789-790, 34398 Maslak","country":"Turkey"}},{"type":"Feature","geometry":{"type":"Point","coordinates":[29.05298,41.09865]},"properties":{"name":"ZES Emirgan Sakıp Sabancı Caddesi","coordinate":["41.09865,29.05298"],"municipality":"Istanbul","freeformAddress":"Sakıp Sabancı Caddesi, 34467 Emirgan","country":"Turkey"}},{"type":"Feature","geometry":{"type":"Point","coordinates":[28.98645,41.0364]},"properties":{"name":"Eşarj Gümüşsuyu Dünya Sağlık Sokak","coordinate":["41.0364,28.98645"],"municipality":"Istanbul","freeformAddress":"Dünya Sağlık Sokak, 34437 Gümüşsuyu","country":"Turkey"}},{"type":"Feature","geometry":{"type":"Point","coordinates":[28.98644,41.0364]},"properties":{"name":"Eşarj Katipmustafa Çelebi Taksim Caddesi","coordinate":["41.0364,28.98644"],"municipality":"Istanbul","freeformAddress":"Taksim Caddesi, 34433 Katipmustafa Çelebi","country":"Turkey"}},{"type":"Feature","geometry":{"type":"Point","coordinates":[28.96756,41.04242]},"properties":{"name":"ZES İstiklal Piyalepaşa Bulvarı","coordinate":["41.04242,28.96756"],"municipality":"Istanbul","freeformAddress":"Piyalepaşa Bulvarı, 34440 İstiklal","country":"Turkey"}},{"type":"Feature","geometry":{"type":"Point","coordinates":[29.08629,41.09547]},"properties":{"name":"ZES Çubuklu Orhan Veli Kanık Caddesi","coordinate":["41.09547,29.08629"],"municipality":"Istanbul","freeformAddress":"Orhan Veli Kanık Caddesi, 34805 Çubuklu","country":"Turkey"}},{"type":"Feature","geometry":{"type":"Point","coordinates":[29.07885,41.08021]},"properties":{"name":"Eşarj Göztepe Atatürk Caddesi","coordinate":["41.08021,29.07885"],"municipality":"Istanbul","freeformAddress":"Atatürk Caddesi, 34815 Göztepe","country":"Turkey"}},{"type":"Feature","geometry":{"type":"Point","coordinates":[29.05298,41.09865]},"properties":{"name":"ZES Emirgan Sakıp Sabancı Caddesi","coordinate":["41.09865,29.05298"],"municipality":"Istanbul","freeformAddress":"Sakıp Sabancı Caddesi, 34467 Emirgan","country":"Turkey"}},{"type":"Feature","geometry":{"type":"Point","coordinates":[29.04702,41.08507]},"properties":{"name":"Eşarj Rumelihisari Boğaziçi Üniversitesi Yolu","coordinate":["41.08507,29.04702"],"municipality":"Istanbul","freeformAddress":"Boğaziçi Üniversitesi Yolu, 34470 Rumelihisari","country":"Turkey"}},{"type":"Feature","geometry":{"type":"Point","coordinates":[29.04542,41.07865]},"properties":{"name":"ZES Bebek Cevdet Paşa Caddesi","coordinate":["41.07865,29.04542"],"municipality":"Istanbul","freeformAddress":"Cevdet Paşa Caddesi, 34342 Bebek","country":"Turkey"}},{"type":"Feature","geometry":{"type":"Point","coordinates":[29.29134,41.10258]},"properties":{"name":"ZES Ömerli","coordinate":["41.10258,29.29134"],"municipality":"Istanbul","freeformAddress":"34794 Ömerli","country":"Turkey"}},{"type":"Feature","geometry":{"type":"Point","coordinates":[29.28654,41.08947]},"properties":{"name":"ZES Ömerli","coordinate":["41.08947,29.28654"],"municipality":"Istanbul","freeformAddress":"34794 Ömerli","country":"Turkey"}},{"type":"Feature","geometry":{"type":"Point","coordinates":[29.30977,41.10427]},"properties":{"name":"ZES Sirapinar Taşlı Armut Sokak","coordinate":["41.10427,29.30977"],"municipality":"Istanbul","freeformAddress":"Taşlı Armut Sokak, 34799 Sirapinar","country":"Turkey"}},{"type":"Feature","geometry":{"type":"Point","coordinates":[29.31339,41.09128]},"properties":{"name":"YGE Ömerli Ayvalı Çiftliği Caddesi","coordinate":["41.09128,29.31339"],"municipality":"Istanbul","freeformAddress":"Ayvalı Çiftliği Caddesi, 34794 Ömerli","country":"Turkey"}},{"type":"Feature","geometry":{"type":"Point","coordinates":[29.5121,41.08683]},"properties":{"name":"ZES Ulupelit Aslı Sokak","coordinate":["41.08683,29.5121"],"municipality":"Istanbul","freeformAddress":"Aslı Sokak, 34980 Ulupelit","country":"Turkey"}},{"type":"Feature","geometry":{"type":"Point","coordinates":[42.718,42.26624]},"properties":{"name":"ქუთაისი 26 მაისის ქუჩა","coordinate":["42.26624,42.718"],"municipality":"Kutaisi","freeformAddress":"26 მაისის ქუჩა ქუთაისი","country":"Georgia"}},{"type":"Feature","geometry":{"type":"Point","coordinates":[26.62574,40.83777]},"properties":{"name":"ZES Aşağı Zaferiye Edirne-Çanakkale Yolu","coordinate":["40.83777,26.62574"],"municipality":"Edirne Centre","freeformAddress":"Edirne-Çanakkale Yolu, 22900 Aşağı Zaferiye","country":"Turkey"}},{"type":"Feature","geometry":{"type":"Point","coordinates":[28.7142,40.99113]},"properties":{"name":"Eşarj Üniversite","coordinate":["40.99113,28.7142"],"municipality":"Istanbul","freeformAddress":"34320 Üniversite","country":"Turkey"}},{"type":"Feature","geometry":{"type":"Point","coordinates":[28.7142,40.99113]},"properties":{"name":"Eşarj Üniversite Selvi Sokak","coordinate":["40.99113,28.7142"],"municipality":"Istanbul","freeformAddress":"Selvi Sokak 25, 34320 Üniversite","country":"Turkey"}},{"type":"Feature","geometry":{"type":"Point","coordinates":[28.71419,40.99147]},"properties":{"name":"Eşarj Üniversite E-5 Yanyol Caddesi","coordinate":["40.99147,28.71419"],"municipality":"Istanbul","freeformAddress":"E-5 Yanyol Caddesi 25, 34320 Üniversite","country":"Turkey"}},{"type":"Feature","geometry":{"type":"Point","coordinates":[28.71866,40.99159]},"properties":{"name":"GERSAN Üniversite Firuzköy Bulvarı","coordinate":["40.99159,28.71866"],"municipality":"Istanbul","freeformAddress":"Firuzköy Bulvarı, 34320 Üniversite","country":"Turkey"}},{"type":"Feature","geometry":{"type":"Point","coordinates":[28.71666,40.99185]},"properties":{"name":"Eşarj Üniversite Firuzköy Bulvarı","coordinate":["40.99185,28.71666"],"municipality":"Istanbul","freeformAddress":"Firuzköy Bulvarı, 34320 Üniversite","country":"Turkey"}},{"type":"Feature","geometry":{"type":"Point","coordinates":[28.71686,40.99303]},"properties":{"name":"Eşarj Üniversite Firuzköy Bulvarı","coordinate":["40.99303,28.71686"],"municipality":"Istanbul","freeformAddress":"Firuzköy Bulvarı 21, 34320 Üniversite","country":"Turkey"}},{"type":"Feature","geometry":{"type":"Point","coordinates":[28.68777,41.00324]},"properties":{"name":"Eşarj Turgut Özal 68. Sokak","coordinate":["41.00324,28.68777"],"municipality":"Istanbul","freeformAddress":"68. Sokak D 185, 34513 Turgut Özal","country":"Turkey"}},{"type":"Feature","geometry":{"type":"Point","coordinates":[28.76526,40.98549]},"properties":{"name":"ZES Fatih 830. Yanyol","coordinate":["40.98549,28.76526"],"municipality":"Istanbul","freeformAddress":"830. Yanyol 6, 34290 Fatih","country":"Turkey"}},{"type":"Feature","geometry":{"type":"Point","coordinates":[28.6745,41.00651]},"properties":{"name":"bd oto Güzelyurt Mustafa Kemal Caddesi","coordinate":["41.00651,28.6745"],"municipality":"Istanbul","freeformAddress":"Mustafa Kemal Caddesi, 34515 Güzelyurt","country":"Turkey"}},{"type":"Feature","geometry":{"type":"Point","coordinates":[28.68143,41.0154]},"properties":{"name":"Eşarj Zafer Haramidere Yolu","coordinate":["41.0154,28.68143"],"municipality":"Istanbul","freeformAddress":"Haramidere Yolu 26, 34513 Zafer","country":"Turkey"}},{"type":"Feature","geometry":{"type":"Point","coordinates":[28.81628,40.99092]},"properties":{"name":"bd oto Yeşilköy Atatürk Havalimanı Caddesi","coordinate":["40.99092,28.81628"],"municipality":"Istanbul","freeformAddress":"Atatürk Havalimanı Caddesi, 34149 Yeşilköy","country":"Turkey"}},{"type":"Feature","geometry":{"type":"Point","coordinates":[28.81826,40.97986]},"properties":{"name":"Eşarj Yeşilköy Atatürk Havalimanı Kapalı Otopark Girişi Yolu","coordinate":["40.97986,28.81826"],"municipality":"Istanbul","freeformAddress":"Atatürk Havalimanı Kapalı Otopark Girişi Yolu, 34149 Yeşilköy","country":"Turkey"}},{"type":"Feature","geometry":{"type":"Point","coordinates":[28.81884,40.98004]},"properties":{"name":"bd oto Yeşilköy Havaalanı Yolu","coordinate":["40.98004,28.81884"],"municipality":"Istanbul","freeformAddress":"Havaalanı Yolu 2C5, 34149 Yeşilköy","country":"Turkey"}},{"type":"Feature","geometry":{"type":"Point","coordinates":[28.81943,40.98034]},"properties":{"name":"bd oto Yeşilköy Havaalanı Yolu","coordinate":["40.98034,28.81943"],"municipality":"Istanbul","freeformAddress":"Havaalanı Yolu 2D1, 34149 Yeşilköy","country":"Turkey"}},{"type":"Feature","geometry":{"type":"Point","coordinates":[28.82764,40.99336]},"properties":{"name":"ZES Çobançeşme Kımız Sokak","coordinate":["40.99336,28.82764"],"municipality":"Istanbul","freeformAddress":"Kımız Sokak, 34196 Çobançeşme","country":"Turkey"}},{"type":"Feature","geometry":{"type":"Point","coordinates":[28.82235,41.00131]},"properties":{"name":"Eşarj Çobançeşme Sanayi Caddesi","coordinate":["41.00131,28.82235"],"municipality":"Istanbul","freeformAddress":"Sanayi Caddesi, 34196 Çobançeşme","country":"Turkey"}},{"type":"Feature","geometry":{"type":"Point","coordinates":[28.79095,40.9866]},"properties":{"name":"Eşarj Şenlikköy Akasya Sokak","coordinate":["40.9866,28.79095"],"municipality":"Istanbul","freeformAddress":"Akasya Sokak, 34153 Şenlikköy","country":"Turkey"}},{"type":"Feature","geometry":{"type":"Point","coordinates":[28.80419,40.97283]},"properties":{"name":"Eşarj Şenlikköy","coordinate":["40.97283,28.80419"],"municipality":"Istanbul","freeformAddress":"34153 Şenlikköy","country":"Turkey"}},{"type":"Feature","geometry":{"type":"Point","coordinates":[28.80419,40.97282]},"properties":{"name":"Eşarj Şenlikköy Harman Sokak","coordinate":["40.97282,28.80419"],"municipality":"Istanbul","freeformAddress":"Harman Sokak 48, 34153 Şenlikköy","country":"Turkey"}},{"type":"Feature","geometry":{"type":"Point","coordinates":[28.83386,40.99181]},"properties":{"name":"GERSAN Ataköy 7-8-9-10. Kisim","coordinate":["40.99181,28.83386"],"municipality":"Istanbul","freeformAddress":"34158 Ataköy 7-8-9-10. Kisim","country":"Turkey"}},{"type":"Feature","geometry":{"type":"Point","coordinates":[28.81545,41.01118]},"properties":{"name":"Eşarj Yenibosna Merkez Kavak Sokak","coordinate":["41.01118,28.81545"],"municipality":"Istanbul","freeformAddress":"Kavak Sokak 2, 34197 Yenibosna Merkez","country":"Turkey"}},{"type":"Feature","geometry":{"type":"Point","coordinates":[28.81545,41.01118]},"properties":{"name":"Eşarj Yenibosna Merkez","coordinate":["41.01118,28.81545"],"municipality":"Istanbul","freeformAddress":"34197 Yenibosna Merkez","country":"Turkey"}},{"type":"Feature","geometry":{"type":"Point","coordinates":[28.81524,41.0174]},"properties":{"name":"Eşarj Yenibosna Merkez Kavak Sokak","coordinate":["41.0174,28.81524"],"municipality":"Istanbul","freeformAddress":"Kavak Sokak 24, 34197 Yenibosna Merkez","country":"Turkey"}},{"type":"Feature","geometry":{"type":"Point","coordinates":[28.8501,40.97851]},"properties":{"name":"ZES Ataköy 2-5-6. Kisim Adnan Kahveci Bulvarı","coordinate":["40.97851,28.8501"],"municipality":"Istanbul","freeformAddress":"Adnan Kahveci Bulvarı, 34158 Ataköy 2-5-6. Kisim","country":"Turkey"}},{"type":"Feature","geometry":{"type":"Point","coordinates":[28.81986,41.02207]},"properties":{"name":"bd oto Bağlar Yalçın Koreş Caddesi","coordinate":["41.02207,28.81986"],"municipality":"Istanbul","freeformAddress":"Yalçın Koreş Caddesi 22, 34209 Bağlar","country":"Turkey"}},{"type":"Feature","geometry":{"type":"Point","coordinates":[28.76526,40.98549]},"properties":{"name":"ZES Fatih 830. Yanyol","coordinate":["40.98549,28.76526"],"municipality":"Istanbul","freeformAddress":"830. Yanyol 6, 34290 Fatih","country":"Turkey"}},{"type":"Feature","geometry":{"type":"Point","coordinates":[28.83906,40.96023]},"properties":{"name":"Eşarj Yeşilyurt Sahil Yolu Caddesi","coordinate":["40.96023,28.83906"],"municipality":"Istanbul","freeformAddress":"Sahil Yolu Caddesi 2, 34149 Yeşilyurt","country":"Turkey"}},{"type":"Feature","geometry":{"type":"Point","coordinates":[28.86383,40.98677]},"properties":{"name":"ZES Zuhuratbaba","coordinate":["40.98677,28.86383"],"municipality":"Istanbul","freeformAddress":"34147 Zuhuratbaba","country":"Turkey"}},{"type":"Feature","geometry":{"type":"Point","coordinates":[28.90314,40.99541]},"properties":{"name":"Eşarj Beştelsiz İnönü Bulvarı","coordinate":["40.99541,28.90314"],"municipality":"Istanbul","freeformAddress":"İnönü Bulvarı 38, 34020 Beştelsiz","country":"Turkey"}},{"type":"Feature","geometry":{"type":"Point","coordinates":[28.89055,41.0024]},"properties":{"name":"Eşarj Osmaniye Yan Yol","coordinate":["41.0024,28.89055"],"municipality":"Istanbul","freeformAddress":"Yan Yol 1-3, 34146 Osmaniye","country":"Turkey"}},{"type":"Feature","geometry":{"type":"Point","coordinates":[28.89055,41.0024]},"properties":{"name":"Eşarj Osmaniye E-5 Çırpıcı Yanyol Caddesi","coordinate":["41.0024,28.89055"],"municipality":"Istanbul","freeformAddress":"E-5 Çırpıcı Yanyol Caddesi 1/3, 34146 Osmaniye","country":"Turkey"}},{"type":"Feature","geometry":{"type":"Point","coordinates":[28.88566,40.99581]},"properties":{"name":"bd oto Osmaniye İsmail Erez Bulvarı","coordinate":["40.99581,28.88566"],"municipality":"Istanbul","freeformAddress":"İsmail Erez Bulvarı G09, 34146 Osmaniye","country":"Turkey"}},{"type":"Feature","geometry":{"type":"Point","coordinates":[28.88447,40.99443]},"properties":{"name":"bd oto Osmaniye Camii Sokak","coordinate":["40.99443,28.88447"],"municipality":"Istanbul","freeformAddress":"Camii Sokak 3, 34146 Osmaniye","country":"Turkey"}},{"type":"Feature","geometry":{"type":"Point","coordinates":[28.9024,40.98032]},"properties":{"name":"ZES Kazliçeşme Kennedy Caddesi","coordinate":["40.98032,28.9024"],"municipality":"Istanbul","freeformAddress":"Kennedy Caddesi 56, 34020 Kazliçeşme","country":"Turkey"}},{"type":"Feature","geometry":{"type":"Point","coordinates":[28.88417,41.01222]},"properties":{"name":"GERSAN Mehmet Nesih Özmen Fatih Caddesi","coordinate":["41.01222,28.88417"],"municipality":"Istanbul","freeformAddress":"Fatih Caddesi, 34173 Mehmet Nesih Özmen","country":"Turkey"}},{"type":"Feature","geometry":{"type":"Point","coordinates":[28.91296,41.0186]},"properties":{"name":"Voltrun Maltepe","coordinate":["41.0186,28.91296"],"municipality":"Istanbul","freeformAddress":"34010 Maltepe","country":"Turkey"}},{"type":"Feature","geometry":{"type":"Point","coordinates":[28.88641,40.97975]},"properties":{"name":"ZES Sakizağaci Kennedy Caddesi","coordinate":["40.97975,28.88641"],"municipality":"Istanbul","freeformAddress":"Kennedy Caddesi 103, 34142 Sakizağaci","country":"Turkey"}},{"type":"Feature","geometry":{"type":"Point","coordinates":[28.89179,41.01917]},"properties":{"name":"YGE Çifte Havuzlar Yıldız Teknik Üniversitesi Davutpaşa Kampüsü Yolu","coordinate":["41.01917,28.89179"],"municipality":"Istanbul","freeformAddress":"Yıldız Teknik Üniversitesi Davutpaşa Kampüsü Yolu, 34220 Çifte Havuzlar","country":"Turkey"}},{"type":"Feature","geometry":{"type":"Point","coordinates":[28.90292,41.02297]},"properties":{"name":"DMA Maltepe Karacabey Sokak","coordinate":["41.02297,28.90292"],"municipality":"Istanbul","freeformAddress":"Karacabey Sokak, 34010 Maltepe","country":"Turkey"}},{"type":"Feature","geometry":{"type":"Point","coordinates":[28.87755,41.01465]},"properties":{"name":"Eşarj Güven Karadeniz Caddesi","coordinate":["41.01465,28.87755"],"municipality":"Istanbul","freeformAddress":"Karadeniz Caddesi 1, 34160 Güven","country":"Turkey"}},{"type":"Feature","geometry":{"type":"Point","coordinates":[28.8784,41.01593]},"properties":{"name":"ZES Güven Eski Londra Asfaltı Caddesi","coordinate":["41.01593,28.8784"],"municipality":"Istanbul","freeformAddress":"Eski Londra Asfaltı Caddesi, 34160 Güven","country":"Turkey"}},{"type":"Feature","geometry":{"type":"Point","coordinates":[28.86383,40.98677]},"properties":{"name":"ZES Zuhuratbaba","coordinate":["40.98677,28.86383"],"municipality":"Istanbul","freeformAddress":"34147 Zuhuratbaba","country":"Turkey"}},{"type":"Feature","geometry":{"type":"Point","coordinates":[28.8746,40.97248]},"properties":{"name":"ZES Ataköy 1. Kisim Ataköy Marina Yolu","coordinate":["40.97248,28.8746"],"municipality":"Istanbul","freeformAddress":"Ataköy Marina Yolu, 34158 Ataköy 1. Kisim","country":"Turkey"}},{"type":"Feature","geometry":{"type":"Point","coordinates":[28.94617,41.01264]},"properties":{"name":"bd oto Molla Gürani Adnan Menderes Vatan Bulvarı","coordinate":["41.01264,28.94617"],"municipality":"Istanbul","freeformAddress":"Adnan Menderes Vatan Bulvarı, 34093 Molla Gürani","country":"Turkey"}},{"type":"Feature","geometry":{"type":"Point","coordinates":[28.9205,41.0359]},"properties":{"name":"ZES Topçular Demirkapı Caddesi","coordinate":["41.0359,28.9205"],"municipality":"Istanbul","freeformAddress":"Demirkapı Caddesi, 34055 Topçular","country":"Turkey"}},{"type":"Feature","geometry":{"type":"Point","coordinates":[29.03074,41.00001]},"properties":{"name":"Eşarj Acibadem Dinlenç Caddesi","coordinate":["41.00001,29.03074"],"municipality":"Istanbul","freeformAddress":"Dinlenç Caddesi 1, 34718 Acibadem","country":"Turkey"}},{"type":"Feature","geometry":{"type":"Point","coordinates":[29.03069,40.99984]},"properties":{"name":"Eşarj Acibadem Fatih Sokak","coordinate":["40.99984,29.03069"],"municipality":"Istanbul","freeformAddress":"Fatih Sokak 1, 34718 Acibadem","country":"Turkey"}},{"type":"Feature","geometry":{"type":"Point","coordinates":[28.9799,41.02466]},"properties":{"name":"ZES Kemankeş Karamustafapaşa Kemankeş Caddesi","coordinate":["41.02466,28.9799"],"municipality":"Istanbul","freeformAddress":"Kemankeş Caddesi, 34425 Kemankeş Karamustafapaşa","country":"Turkey"}},{"type":"Feature","geometry":{"type":"Point","coordinates":[29.03251,40.99898]},"properties":{"name":"ZES Acibadem Fatih Sokak","coordinate":["40.99898,29.03251"],"municipality":"Istanbul","freeformAddress":"Fatih Sokak 1, 34718 Acibadem","country":"Turkey"}},{"type":"Feature","geometry":{"type":"Point","coordinates":[29.03433,41.00305]},"properties":{"name":"Eşarj Acibadem Onur Sokak","coordinate":["41.00305,29.03433"],"municipality":"Istanbul","freeformAddress":"Onur Sokak, 34718 Acibadem","country":"Turkey"}},{"type":"Feature","geometry":{"type":"Point","coordinates":[29.03282,40.99529]},"properties":{"name":"bd oto Acibadem Taşköprü Caddesi","coordinate":["40.99529,29.03282"],"municipality":"Istanbul","freeformAddress":"Taşköprü Caddesi 17/19-A, 34718 Acibadem","country":"Turkey"}},{"type":"Feature","geometry":{"type":"Point","coordinates":[29.03552,41.00479]},"properties":{"name":"Eşarj Acibadem","coordinate":["41.00479,29.03552"],"municipality":"Istanbul","freeformAddress":"34718 Acibadem","country":"Turkey"}},{"type":"Feature","geometry":{"type":"Point","coordinates":[29.03573,41.00457]},"properties":{"name":"bd oto Acibadem Alidede Sokak","coordinate":["41.00457,29.03573"],"municipality":"Istanbul","freeformAddress":"Alidede Sokak 4, 34718 Acibadem","country":"Turkey"}},{"type":"Feature","geometry":{"type":"Point","coordinates":[29.03826,41.00281]},"properties":{"name":"Eşarj Acibadem Köftüncü Sokak","coordinate":["41.00281,29.03826"],"municipality":"Istanbul","freeformAddress":"Köftüncü Sokak 6, 34718 Acibadem","country":"Turkey"}},{"type":"Feature","geometry":{"type":"Point","coordinates":[28.98594,41.03208]},"properties":{"name":"bd oto Cihangir Cihangir Caddesi","coordinate":["41.03208,28.98594"],"municipality":"Istanbul","freeformAddress":"Cihangir Caddesi, 34433 Cihangir","country":"Turkey"}},{"type":"Feature","geometry":{"type":"Point","coordinates":[29.0359,41.0184]},"properties":{"name":"bd oto Barbaros Sırma Perde Sokak","coordinate":["41.0184,29.0359"],"municipality":"Istanbul","freeformAddress":"Sırma Perde Sokak 5, 34662 Barbaros","country":"Turkey"}},{"type":"Feature","geometry":{"type":"Point","coordinates":[29.03763,40.99202]},"properties":{"name":"GERSAN Hasanpaşa","coordinate":["40.99202,29.03763"],"municipality":"Istanbul","freeformAddress":"34722 Hasanpaşa","country":"Turkey"}},{"type":"Feature","geometry":{"type":"Point","coordinates":[29.03976,40.99474]},"properties":{"name":"YGE Hasanpaşa Kurbağalıdere Caddesi","coordinate":["40.99474,29.03976"],"municipality":"Istanbul","freeformAddress":"Kurbağalıdere Caddesi 56, 34722 Hasanpaşa","country":"Turkey"}},{"type":"Feature","geometry":{"type":"Point","coordinates":[28.97424,41.03117]},"properties":{"name":"Eşarj Asmali Mescit Balyoz Sokak","coordinate":["41.03117,28.97424"],"municipality":"Istanbul","freeformAddress":"Balyoz Sokak, 34430 Asmali Mescit","country":"Turkey"}},{"type":"Feature","geometry":{"type":"Point","coordinates":[28.97424,41.03117]},"properties":{"name":"Eşarj Asmali Mescit Meşrutiyet Caddesi","coordinate":["41.03117,28.97424"],"municipality":"Istanbul","freeformAddress":"Meşrutiyet Caddesi 93, 34430 Asmali Mescit","country":"Turkey"}},{"type":"Feature","geometry":{"type":"Point","coordinates":[28.98645,41.0364]},"properties":{"name":"Eşarj Gümüşsuyu Dünya Sağlık Sokak","coordinate":["41.0364,28.98645"],"municipality":"Istanbul","freeformAddress":"Dünya Sağlık Sokak, 34437 Gümüşsuyu","country":"Turkey"}},{"type":"Feature","geometry":{"type":"Point","coordinates":[29.04189,41.01466]},"properties":{"name":"GERSAN Barbaros Tophanelioğlu Caddesi","coordinate":["41.01466,29.04189"],"municipality":"Istanbul","freeformAddress":"Tophanelioğlu Caddesi, 34662 Barbaros","country":"Turkey"}},{"type":"Feature","geometry":{"type":"Point","coordinates":[29.03529,40.98598]},"properties":{"name":"ZES Zühtüpaşa Reşitpaşa Sokak","coordinate":["40.98598,29.03529"],"municipality":"Istanbul","freeformAddress":"Reşitpaşa Sokak, 34724 Zühtüpaşa","country":"Turkey"}},{"type":"Feature","geometry":{"type":"Point","coordinates":[28.98644,41.0364]},"properties":{"name":"Eşarj Katipmustafa Çelebi Taksim Caddesi","coordinate":["41.0364,28.98644"],"municipality":"Istanbul","freeformAddress":"Taksim Caddesi, 34433 Katipmustafa Çelebi","country":"Turkey"}},{"type":"Feature","geometry":{"type":"Point","coordinates":[28.97431,41.03225]},"properties":{"name":"GERSAN Asmali Mescit Meşrutiyet Caddesi","coordinate":["41.03225,28.97431"],"municipality":"Istanbul","freeformAddress":"Meşrutiyet Caddesi, 34430 Asmali Mescit","country":"Turkey"}},{"type":"Feature","geometry":{"type":"Point","coordinates":[29.03941,41.02101]},"properties":{"name":"Eşarj Altunizade Aksoy Sokak","coordinate":["41.02101,29.03941"],"municipality":"Istanbul","freeformAddress":"Aksoy Sokak 4, 34662 Altunizade","country":"Turkey"}},{"type":"Feature","geometry":{"type":"Point","coordinates":[29.04124,41.02297]},"properties":{"name":"ZES Altunizade Aka Gündüz Sokak","coordinate":["41.02297,29.04124"],"municipality":"Istanbul","freeformAddress":"Aka Gündüz Sokak, 34662 Altunizade","country":"Turkey"}},{"type":"Feature","geometry":{"type":"Point","coordinates":[29.00508,41.0409]},"properties":{"name":"Eşarj Sinanpaşa Hayrettin İskelesi Sokak","coordinate":["41.0409,29.00508"],"municipality":"Istanbul","freeformAddress":"Hayrettin İskelesi Sokak 1, 34353 Sinanpaşa","country":"Turkey"}},{"type":"Feature","geometry":{"type":"Point","coordinates":[29.04411,41.02337]},"properties":{"name":"ZES Altunizade İnci Çıkmazı","coordinate":["41.02337,29.04411"],"municipality":"Istanbul","freeformAddress":"İnci Çıkmazı, 34662 Altunizade","country":"Turkey"}},{"type":"Feature","geometry":{"type":"Point","coordinates":[29.05027,40.99683]},"properties":{"name":"GERSAN Fikirtepe Güven Sokak","coordinate":["40.99683,29.05027"],"municipality":"Istanbul","freeformAddress":"Güven Sokak, 34720 Fikirtepe","country":"Turkey"}},{"type":"Feature","geometry":{"type":"Point","coordinates":[28.96965,41.03825]},"properties":{"name":"Eşarj İstiklal Piyalepaşa Bulvarı","coordinate":["41.03825,28.96965"],"municipality":"Istanbul","freeformAddress":"Piyalepaşa Bulvarı 4, 34440 İstiklal","country":"Turkey"}},{"type":"Feature","geometry":{"type":"Point","coordinates":[28.96787,41.03838]},"properties":{"name":"Eşarj Küçük Piyale Piyalepaşa Bulvarı","coordinate":["41.03838,28.96787"],"municipality":"Istanbul","freeformAddress":"Piyalepaşa Bulvarı 3, 34440 Küçük Piyale","country":"Turkey"}},{"type":"Feature","geometry":{"type":"Point","coordinates":[29.05473,41.00108]},"properties":{"name":"Eşarj Acibadem Ünalan Metro İstasyonu Ve Uzunçayır Metrobüs İstasyonu Bağlantısı","coordinate":["41.00108,29.05473"],"municipality":"Istanbul","freeformAddress":"Ünalan Metro İstasyonu Ve Uzunçayır Metrobüs İstasyonu Bağlantısı, 34660 Acibadem","country":"Turkey"}},{"type":"Feature","geometry":{"type":"Point","coordinates":[28.94617,41.01264]},"properties":{"name":"bd oto Molla Gürani Adnan Menderes Vatan Bulvarı","coordinate":["41.01264,28.94617"],"municipality":"Istanbul","freeformAddress":"Adnan Menderes Vatan Bulvarı, 34093 Molla Gürani","country":"Turkey"}},{"type":"Feature","geometry":{"type":"Point","coordinates":[28.96756,41.04242]},"properties":{"name":"ZES İstiklal Piyalepaşa Bulvarı","coordinate":["41.04242,28.96756"],"municipality":"Istanbul","freeformAddress":"Piyalepaşa Bulvarı, 34440 İstiklal","country":"Turkey"}},{"type":"Feature","geometry":{"type":"Point","coordinates":[29.10675,41.01186]},"properties":{"name":"ZES Armağanevler Dere Sokak","coordinate":["41.01186,29.10675"],"municipality":"Istanbul","freeformAddress":"Dere Sokak, 34760 Armağanevler","country":"Turkey"}},{"type":"Feature","geometry":{"type":"Point","coordinates":[29.10542,41.02621]},"properties":{"name":"GERSAN Yamanevler Haldun Alagaş Caddesi","coordinate":["41.02621,29.10542"],"municipality":"Istanbul","freeformAddress":"Haldun Alagaş Caddesi, 34768 Yamanevler","country":"Turkey"}},{"type":"Feature","geometry":{"type":"Point","coordinates":[29.09923,40.99726]},"properties":{"name":"GERSAN Barbaros Mor Sümbül Sokak","coordinate":["40.99726,29.09923"],"municipality":"Istanbul","freeformAddress":"Mor Sümbül Sokak, 34746 Barbaros","country":"Turkey"}},{"type":"Feature","geometry":{"type":"Point","coordinates":[29.07123,41.02175]},"properties":{"name":"GERSAN Kisikli","coordinate":["41.02175,29.07123"],"municipality":"Istanbul","freeformAddress":"34692 Kisikli","country":"Turkey"}},{"type":"Feature","geometry":{"type":"Point","coordinates":[29.08992,41.0329]},"properties":{"name":"ZES Tantavi Estergon Caddesi","coordinate":["41.0329,29.08992"],"municipality":"Istanbul","freeformAddress":"Estergon Caddesi, 34764 Tantavi","country":"Turkey"}},{"type":"Feature","geometry":{"type":"Point","coordinates":[29.122,41.02179]},"properties":{"name":"Eşarj Fatih Sultan Mehmet Balkan Caddesi","coordinate":["41.02179,29.122"],"municipality":"Istanbul","freeformAddress":"Balkan Caddesi 193, 34771 Fatih Sultan Mehmet","country":"Turkey"}},{"type":"Feature","geometry":{"type":"Point","coordinates":[29.1051,40.98983]},"properties":{"name":"DMA Barbaros Fesleğen Sokak","coordinate":["40.98983,29.1051"],"municipality":"Istanbul","freeformAddress":"Fesleğen Sokak, 34746 Barbaros","country":"Turkey"}},{"type":"Feature","geometry":{"type":"Point","coordinates":[29.08571,40.98868]},"properties":{"name":"Eşarj Yenisahra","coordinate":["40.98868,29.08571"],"municipality":"Istanbul","freeformAddress":"34746 Yenisahra","country":"Turkey"}},{"type":"Feature","geometry":{"type":"Point","coordinates":[29.1253,41.0263]},"properties":{"name":"Eşarj Fatih Sultan Mehmet Balkan Caddesi","coordinate":["41.0263,29.1253"],"municipality":"Istanbul","freeformAddress":"Balkan Caddesi 56, 34771 Fatih Sultan Mehmet","country":"Turkey"}},{"type":"Feature","geometry":{"type":"Point","coordinates":[29.12531,41.0263]},"properties":{"name":"Eşarj Fatih Sultan Mehmet Poligon Caddesi","coordinate":["41.0263,29.12531"],"municipality":"Istanbul","freeformAddress":"Poligon Caddesi, 34771 Fatih Sultan Mehmet","country":"Turkey"}},{"type":"Feature","geometry":{"type":"Point","coordinates":[29.10043,40.98613]},"properties":{"name":"Eşarj Barbaros","coordinate":["40.98613,29.10043"],"municipality":"Istanbul","freeformAddress":"34746 Barbaros","country":"Turkey"}},{"type":"Feature","geometry":{"type":"Point","coordinates":[29.10043,40.98613]},"properties":{"name":"Eşarj Barbaros Halk Caddesi","coordinate":["40.98613,29.10043"],"municipality":"Istanbul","freeformAddress":"Halk Caddesi 8-B, 34746 Barbaros","country":"Turkey"}},{"type":"Feature","geometry":{"type":"Point","coordinates":[29.09728,40.98562]},"properties":{"name":"ZES Barbaros Sütçü Yolu Caddesi","coordinate":["40.98562,29.09728"],"municipality":"Istanbul","freeformAddress":"Sütçü Yolu Caddesi, 34746 Barbaros","country":"Turkey"}},{"type":"Feature","geometry":{"type":"Point","coordinates":[29.12783,41.02654]},"properties":{"name":"Eşarj Fatih Sultan Mehmet Balkan Caddesi","coordinate":["41.02654,29.12783"],"municipality":"Istanbul","freeformAddress":"Balkan Caddesi, 34771 Fatih Sultan Mehmet","country":"Turkey"}},{"type":"Feature","geometry":{"type":"Point","coordinates":[29.11172,40.98701]},"properties":{"name":"bd oto Küçükbakkalköy Nartanesi Sokak","coordinate":["40.98701,29.11172"],"municipality":"Istanbul","freeformAddress":"Nartanesi Sokak 14-16, 34750 Küçükbakkalköy","country":"Turkey"}},{"type":"Feature","geometry":{"type":"Point","coordinates":[29.12657,40.99175]},"properties":{"name":"ZES Atatürk Turgut Özal Bulvarı","coordinate":["40.99175,29.12657"],"municipality":"Istanbul","freeformAddress":"Turgut Özal Bulvarı, 34758 Atatürk","country":"Turkey"}},{"type":"Feature","geometry":{"type":"Point","coordinates":[29.1179,40.98607]},"properties":{"name":"ZES Küçükbakkalköy Şehit Şakir Elkovan Caddesi","coordinate":["40.98607,29.1179"],"municipality":"Istanbul","freeformAddress":"Şehit Şakir Elkovan Caddesi, 34750 Küçükbakkalköy","country":"Turkey"}},{"type":"Feature","geometry":{"type":"Point","coordinates":[29.05473,41.00108]},"properties":{"name":"Eşarj Acibadem Ünalan Metro İstasyonu Ve Uzunçayır Metrobüs İstasyonu Bağlantısı","coordinate":["41.00108,29.05473"],"municipality":"Istanbul","freeformAddress":"Ünalan Metro İstasyonu Ve Uzunçayır Metrobüs İstasyonu Bağlantısı, 34660 Acibadem","country":"Turkey"}},{"type":"Feature","geometry":{"type":"Point","coordinates":[29.12412,40.98801]},"properties":{"name":"ZES Küçükbakkalköy","coordinate":["40.98801,29.12412"],"municipality":"Istanbul","freeformAddress":"34750 Küçükbakkalköy","country":"Turkey"}},{"type":"Feature","geometry":{"type":"Point","coordinates":[29.09704,40.97754]},"properties":{"name":"Eşarj 19 Mayis İnönü Caddesi","coordinate":["40.97754,29.09704"],"municipality":"Istanbul","freeformAddress":"İnönü Caddesi 101, 34736 19 Mayis","country":"Turkey"}},{"type":"Feature","geometry":{"type":"Point","coordinates":[29.05027,40.99683]},"properties":{"name":"GERSAN Fikirtepe Güven Sokak","coordinate":["40.99683,29.05027"],"municipality":"Istanbul","freeformAddress":"Güven Sokak, 34720 Fikirtepe","country":"Turkey"}},{"type":"Feature","geometry":{"type":"Point","coordinates":[29.06609,40.98211]},"properties":{"name":"bd oto Göztepe Dilsiz Sokak","coordinate":["40.98211,29.06609"],"municipality":"Istanbul","freeformAddress":"Dilsiz Sokak 4, 34730 Göztepe","country":"Turkey"}},{"type":"Feature","geometry":{"type":"Point","coordinates":[29.04411,41.02337]},"properties":{"name":"ZES Altunizade İnci Çıkmazı","coordinate":["41.02337,29.04411"],"municipality":"Istanbul","freeformAddress":"İnci Çıkmazı, 34662 Altunizade","country":"Turkey"}},{"type":"Feature","geometry":{"type":"Point","coordinates":[29.09813,40.97376]},"properties":{"name":"ZES Kozyataği Değirmen Sokak","coordinate":["40.97376,29.09813"],"municipality":"Istanbul","freeformAddress":"Değirmen Sokak, 34742 Kozyataği","country":"Turkey"}},{"type":"Feature","geometry":{"type":"Point","coordinates":[29.04189,41.01466]},"properties":{"name":"GERSAN Barbaros Tophanelioğlu Caddesi","coordinate":["41.01466,29.04189"],"municipality":"Istanbul","freeformAddress":"Tophanelioğlu Caddesi, 34662 Barbaros","country":"Turkey"}},{"type":"Feature","geometry":{"type":"Point","coordinates":[29.09105,40.97293]},"properties":{"name":"YGE 19 Mayis Dilara Sokak","coordinate":["40.97293,29.09105"],"municipality":"Istanbul","freeformAddress":"Dilara Sokak 11, 34736 19 Mayis","country":"Turkey"}},{"type":"Feature","geometry":{"type":"Point","coordinates":[29.04124,41.02297]},"properties":{"name":"ZES Altunizade Aka Gündüz Sokak","coordinate":["41.02297,29.04124"],"municipality":"Istanbul","freeformAddress":"Aka Gündüz Sokak, 34662 Altunizade","country":"Turkey"}},{"type":"Feature","geometry":{"type":"Point","coordinates":[29.09866,40.97151]},"properties":{"name":"GERSAN Kozyataği Bayar Caddesi","coordinate":["40.97151,29.09866"],"municipality":"Istanbul","freeformAddress":"Bayar Caddesi, 34742 Kozyataği","country":"Turkey"}},{"type":"Feature","geometry":{"type":"Point","coordinates":[29.03941,41.02101]},"properties":{"name":"Eşarj Altunizade Aksoy Sokak","coordinate":["41.02101,29.03941"],"municipality":"Istanbul","freeformAddress":"Aksoy Sokak 4, 34662 Altunizade","country":"Turkey"}},{"type":"Feature","geometry":{"type":"Point","coordinates":[29.03826,41.00281]},"properties":{"name":"Eşarj Acibadem Köftüncü Sokak","coordinate":["41.00281,29.03826"],"municipality":"Istanbul","freeformAddress":"Köftüncü Sokak 6, 34718 Acibadem","country":"Turkey"}},{"type":"Feature","geometry":{"type":"Point","coordinates":[29.0359,41.0184]},"properties":{"name":"bd oto Barbaros Sırma Perde Sokak","coordinate":["41.0184,29.0359"],"municipality":"Istanbul","freeformAddress":"Sırma Perde Sokak 5, 34662 Barbaros","country":"Turkey"}},{"type":"Feature","geometry":{"type":"Point","coordinates":[29.17853,41.01551]},"properties":{"name":"ZES Necip Fazil Alemdağ Caddesi","coordinate":["41.01551,29.17853"],"municipality":"Istanbul","freeformAddress":"Alemdağ Caddesi, 34773 Necip Fazil","country":"Turkey"}},{"type":"Feature","geometry":{"type":"Point","coordinates":[29.16244,41.01587]},"properties":{"name":"ZES Yukari Dudullu Alemdağ Caddesi","coordinate":["41.01587,29.16244"],"municipality":"Istanbul","freeformAddress":"Alemdağ Caddesi, 34775 Yukari Dudullu","country":"Turkey"}},{"type":"Feature","geometry":{"type":"Point","coordinates":[29.1634,41.0094]},"properties":{"name":"Eşarj Yukari Dudullu Necip Fazıl Bulvarı","coordinate":["41.0094,29.1634"],"municipality":"Istanbul","freeformAddress":"Necip Fazıl Bulvarı, 34775 Yukari Dudullu","country":"Turkey"}},{"type":"Feature","geometry":{"type":"Point","coordinates":[29.1767,40.99914]},"properties":{"name":"bd oto Esenkent 2. Cadde","coordinate":["40.99914,29.1767"],"municipality":"Istanbul","freeformAddress":"2. Cadde 25, 34776 Esenkent","country":"Turkey"}},{"type":"Feature","geometry":{"type":"Point","coordinates":[29.15756,41.00576]},"properties":{"name":"Eşarj Yukari Dudullu 1. Cadde","coordinate":["41.00576,29.15756"],"municipality":"Istanbul","freeformAddress":"1. Cadde, 34775 Yukari Dudullu","country":"Turkey"}},{"type":"Feature","geometry":{"type":"Point","coordinates":[29.23426,41.02266]},"properties":{"name":"bd oto Soğukpinar Şölen Sokak","coordinate":["41.02266,29.23426"],"municipality":"Istanbul","freeformAddress":"Şölen Sokak, 34788 Soğukpinar","country":"Turkey"}},{"type":"Feature","geometry":{"type":"Point","coordinates":[29.23798,41.02733]},"properties":{"name":"Eşarj Ekşioğlu Şehitler Caddesi","coordinate":["41.02733,29.23798"],"municipality":"Istanbul","freeformAddress":"Şehitler Caddesi 32, 34794 Ekşioğlu","country":"Turkey"}},{"type":"Feature","geometry":{"type":"Point","coordinates":[29.1636,40.98389]},"properties":{"name":"bd oto Mimar Sinan","coordinate":["40.98389,29.1636"],"municipality":"Istanbul","freeformAddress":"34779 Mimar Sinan","country":"Turkey"}},{"type":"Feature","geometry":{"type":"Point","coordinates":[29.21529,40.9825]},"properties":{"name":"Eşarj Eyüp Sultan Abdülhamit Caddesi","coordinate":["40.9825,29.21529"],"municipality":"Istanbul","freeformAddress":"Abdülhamit Caddesi 5, 34885 Eyüp Sultan","country":"Turkey"}},{"type":"Feature","geometry":{"type":"Point","coordinates":[29.214,40.98118]},"properties":{"name":"Eşarj Eyüp Sultan","coordinate":["40.98118,29.214"],"municipality":"Istanbul","freeformAddress":"34885 Eyüp Sultan","country":"Turkey"}},{"type":"Feature","geometry":{"type":"Point","coordinates":[29.25673,41.04173]},"properties":{"name":"bd oto Nişantepe Nişantepe Caddesi","coordinate":["41.04173,29.25673"],"municipality":"Istanbul","freeformAddress":"Nişantepe Caddesi 16, 34794 Nişantepe","country":"Turkey"}},{"type":"Feature","geometry":{"type":"Point","coordinates":[29.23798,41.02733]},"properties":{"name":"Eşarj Ekşioğlu Şehitler Caddesi","coordinate":["41.02733,29.23798"],"municipality":"Istanbul","freeformAddress":"Şehitler Caddesi 32, 34794 Ekşioğlu","country":"Turkey"}},{"type":"Feature","geometry":{"type":"Point","coordinates":[29.23426,41.02266]},"properties":{"name":"bd oto Soğukpinar Şölen Sokak","coordinate":["41.02266,29.23426"],"municipality":"Istanbul","freeformAddress":"Şölen Sokak, 34788 Soğukpinar","country":"Turkey"}},{"type":"Feature","geometry":{"type":"Point","coordinates":[33.78016,41.38279]},"properties":{"name":"ZES Aktekke Yalçın Caddesi","coordinate":["41.38279,33.78016"],"municipality":"Kastamonu Centre","freeformAddress":"Yalçın Caddesi, 37200 Aktekke","country":"Turkey"}},{"type":"Feature","geometry":{"type":"Point","coordinates":[42.33544,42.14751]},"properties":{"name":"სამტრედია","coordinate":["42.14751,42.33544"],"municipality":"სამტრედია","freeformAddress":"სამტრედია","country":"Georgia"}},{"type":"Feature","geometry":{"type":"Point","coordinates":[42.33544,42.14751]},"properties":{"name":"სამტრედია","coordinate":["42.14751,42.33544"],"municipality":"სამტრედია","freeformAddress":"სამტრედია","country":"Georgia"}},{"type":"Feature","geometry":{"type":"Point","coordinates":[29.09179,40.95812]},"properties":{"name":"GERSAN Bostanci Daryol Sokak","coordinate":["40.95812,29.09179"],"municipality":"Istanbul","freeformAddress":"Daryol Sokak, 34744 Bostanci","country":"Turkey"}},{"type":"Feature","geometry":{"type":"Point","coordinates":[29.08877,40.96118]},"properties":{"name":"bd oto Suadiye Emin Ali Paşa Caddesi","coordinate":["40.96118,29.08877"],"municipality":"Istanbul","freeformAddress":"Emin Ali Paşa Caddesi 46/2, 34740 Suadiye","country":"Turkey"}},{"type":"Feature","geometry":{"type":"Point","coordinates":[29.11809,40.9553]},"properties":{"name":"Eşarj Aydinevler","coordinate":["40.9553,29.11809"],"municipality":"Istanbul","freeformAddress":"34854 Aydinevler","country":"Turkey"}},{"type":"Feature","geometry":{"type":"Point","coordinates":[29.11067,40.96133]},"properties":{"name":"DMA İçerenköy Değirmen Yolu Caddesi","coordinate":["40.96133,29.11067"],"municipality":"Istanbul","freeformAddress":"Değirmen Yolu Caddesi, 34752 İçerenköy","country":"Turkey"}},{"type":"Feature","geometry":{"type":"Point","coordinates":[29.10838,40.96276]},"properties":{"name":"ZES İçerenköy Değirmen Yolu Caddesi","coordinate":["40.96276,29.10838"],"municipality":"Istanbul","freeformAddress":"Değirmen Yolu Caddesi, 34752 İçerenköy","country":"Turkey"}},{"type":"Feature","geometry":{"type":"Point","coordinates":[29.12178,40.95233]},"properties":{"name":"GERSAN Aydinevler Hilltown Yolu","coordinate":["40.95233,29.12178"],"municipality":"Istanbul","freeformAddress":"Hilltown Yolu, 34854 Aydinevler","country":"Turkey"}},{"type":"Feature","geometry":{"type":"Point","coordinates":[29.11224,40.96156]},"properties":{"name":"Eşarj İçerenköy Askent Sokak","coordinate":["40.96156,29.11224"],"municipality":"Istanbul","freeformAddress":"Askent Sokak, 34752 İçerenköy","country":"Turkey"}},{"type":"Feature","geometry":{"type":"Point","coordinates":[29.10276,40.9675]},"properties":{"name":"Eşarj Kozyataği Hüseyin Çelik Sokak","coordinate":["40.9675,29.10276"],"municipality":"Istanbul","freeformAddress":"Hüseyin Çelik Sokak, 34742 Kozyataği","country":"Turkey"}},{"type":"Feature","geometry":{"type":"Point","coordinates":[29.09866,40.97151]},"properties":{"name":"GERSAN Kozyataği Bayar Caddesi","coordinate":["40.97151,29.09866"],"municipality":"Istanbul","freeformAddress":"Bayar Caddesi, 34742 Kozyataği","country":"Turkey"}},{"type":"Feature","geometry":{"type":"Point","coordinates":[29.09105,40.97293]},"properties":{"name":"YGE 19 Mayis Dilara Sokak","coordinate":["40.97293,29.09105"],"municipality":"Istanbul","freeformAddress":"Dilara Sokak 11, 34736 19 Mayis","country":"Turkey"}},{"type":"Feature","geometry":{"type":"Point","coordinates":[29.09813,40.97376]},"properties":{"name":"ZES Kozyataği Değirmen Sokak","coordinate":["40.97376,29.09813"],"municipality":"Istanbul","freeformAddress":"Değirmen Sokak, 34742 Kozyataği","country":"Turkey"}},{"type":"Feature","geometry":{"type":"Point","coordinates":[29.11375,40.96974]},"properties":{"name":"bd oto İçerenköy Merkez Cami Sokak","coordinate":["40.96974,29.11375"],"municipality":"Istanbul","freeformAddress":"Merkez Cami Sokak 28/1, 34752 İçerenköy","country":"Turkey"}},{"type":"Feature","geometry":{"type":"Point","coordinates":[29.09704,40.97754]},"properties":{"name":"Eşarj 19 Mayis İnönü Caddesi","coordinate":["40.97754,29.09704"],"municipality":"Istanbul","freeformAddress":"İnönü Caddesi 101, 34736 19 Mayis","country":"Turkey"}},{"type":"Feature","geometry":{"type":"Point","coordinates":[29.06127,40.97119]},"properties":{"name":"Eşarj Caddebostan Bağdat Caddesi","coordinate":["40.97119,29.06127"],"municipality":"Istanbul","freeformAddress":"Bağdat Caddesi, 34728 Caddebostan","country":"Turkey"}},{"type":"Feature","geometry":{"type":"Point","coordinates":[29.14657,40.92857]},"properties":{"name":"Eşarj Bağlarbaşi Bere Çıkmazı","coordinate":["40.92857,29.14657"],"municipality":"Istanbul","freeformAddress":"Bere Çıkmazı, 34844 Bağlarbaşi","country":"Turkey"}},{"type":"Feature","geometry":{"type":"Point","coordinates":[29.14657,40.92857]},"properties":{"name":"Eşarj Bağlarbaşi Refahevler Sokak","coordinate":["40.92857,29.14657"],"municipality":"Istanbul","freeformAddress":"Refahevler Sokak 2/2, 34844 Bağlarbaşi","country":"Turkey"}},{"type":"Feature","geometry":{"type":"Point","coordinates":[29.13985,40.9159]},"properties":{"name":"ZES Yali Mareşal Fevzi Çakmak Caddesi","coordinate":["40.9159,29.13985"],"municipality":"Istanbul","freeformAddress":"Mareşal Fevzi Çakmak Caddesi, 34844 Yali","country":"Turkey"}},{"type":"Feature","geometry":{"type":"Point","coordinates":[29.09728,40.98562]},"properties":{"name":"ZES Barbaros Sütçü Yolu Caddesi","coordinate":["40.98562,29.09728"],"municipality":"Istanbul","freeformAddress":"Sütçü Yolu Caddesi, 34746 Barbaros","country":"Turkey"}},{"type":"Feature","geometry":{"type":"Point","coordinates":[29.05431,40.97607]},"properties":{"name":"GERSAN Göztepe Gülden Sokak","coordinate":["40.97607,29.05431"],"municipality":"Istanbul","freeformAddress":"Gülden Sokak, 34730 Göztepe","country":"Turkey"}},{"type":"Feature","geometry":{"type":"Point","coordinates":[29.15879,40.92643]},"properties":{"name":"ZES Gülsuyu Başacar Sokak","coordinate":["40.92643,29.15879"],"municipality":"Istanbul","freeformAddress":"Başacar Sokak, 34848 Gülsuyu","country":"Turkey"}},{"type":"Feature","geometry":{"type":"Point","coordinates":[29.17477,40.91837]},"properties":{"name":"ZES Soğanlik Yeni Cevizli Kavşağı","coordinate":["40.91837,29.17477"],"municipality":"Istanbul","freeformAddress":"Cevizli Kavşağı, 34880 Soğanlik Yeni","country":"Turkey"}},{"type":"Feature","geometry":{"type":"Point","coordinates":[29.17877,40.91729]},"properties":{"name":"Eşarj Soğanlik Yeni","coordinate":["40.91729,29.17877"],"municipality":"Istanbul","freeformAddress":"34880 Soğanlik Yeni","country":"Turkey"}},{"type":"Feature","geometry":{"type":"Point","coordinates":[29.17877,40.91729]},"properties":{"name":"Eşarj Soğanlik Yeni Pamukkale Sokak","coordinate":["40.91729,29.17877"],"municipality":"Istanbul","freeformAddress":"Pamukkale Sokak 2, 34880 Soğanlik Yeni","country":"Turkey"}},{"type":"Feature","geometry":{"type":"Point","coordinates":[29.16455,40.91998]},"properties":{"name":"Eşarj Cevizli Tugay Yolu Caddesi","coordinate":["40.91998,29.16455"],"municipality":"Istanbul","freeformAddress":"Tugay Yolu Caddesi 67, 34846 Cevizli","country":"Turkey"}},{"type":"Feature","geometry":{"type":"Point","coordinates":[29.14657,40.92857]},"properties":{"name":"Eşarj Bağlarbaşi Bere Çıkmazı","coordinate":["40.92857,29.14657"],"municipality":"Istanbul","freeformAddress":"Bere Çıkmazı, 34844 Bağlarbaşi","country":"Turkey"}},{"type":"Feature","geometry":{"type":"Point","coordinates":[29.14657,40.92857]},"properties":{"name":"Eşarj Bağlarbaşi Refahevler Sokak","coordinate":["40.92857,29.14657"],"municipality":"Istanbul","freeformAddress":"Refahevler Sokak 2/2, 34844 Bağlarbaşi","country":"Turkey"}},{"type":"Feature","geometry":{"type":"Point","coordinates":[29.214,40.98118]},"properties":{"name":"Eşarj Eyüp Sultan","coordinate":["40.98118,29.214"],"municipality":"Istanbul","freeformAddress":"34885 Eyüp Sultan","country":"Turkey"}},{"type":"Feature","geometry":{"type":"Point","coordinates":[29.1636,40.98389]},"properties":{"name":"bd oto Mimar Sinan","coordinate":["40.98389,29.1636"],"municipality":"Istanbul","freeformAddress":"34779 Mimar Sinan","country":"Turkey"}},{"type":"Feature","geometry":{"type":"Point","coordinates":[29.21529,40.9825]},"properties":{"name":"Eşarj Eyüp Sultan Abdülhamit Caddesi","coordinate":["40.9825,29.21529"],"municipality":"Istanbul","freeformAddress":"Abdülhamit Caddesi 5, 34885 Eyüp Sultan","country":"Turkey"}},{"type":"Feature","geometry":{"type":"Point","coordinates":[29.2014,40.91099]},"properties":{"name":"ZES Orta Kaptanıderya Caddesi","coordinate":["40.91099,29.2014"],"municipality":"Istanbul","freeformAddress":"Kaptanıderya Caddesi, 34880 Orta","country":"Turkey"}},{"type":"Feature","geometry":{"type":"Point","coordinates":[29.22796,40.97583]},"properties":{"name":"Eşarj Akpinar Tuna Caddesi","coordinate":["40.97583,29.22796"],"municipality":"Istanbul","freeformAddress":"Tuna Caddesi, 34885 Akpinar","country":"Turkey"}},{"type":"Feature","geometry":{"type":"Point","coordinates":[29.22954,40.97558]},"properties":{"name":"Eşarj Akpinar Tuna Caddesi","coordinate":["40.97558,29.22954"],"municipality":"Istanbul","freeformAddress":"Tuna Caddesi 39, 34885 Akpinar","country":"Turkey"}},{"type":"Feature","geometry":{"type":"Point","coordinates":[29.28511,40.96033]},"properties":{"name":"YGE Turgut Reis Demokrasi Caddesi","coordinate":["40.96033,29.28511"],"municipality":"Istanbul","freeformAddress":"Demokrasi Caddesi 229, 34930 Turgut Reis","country":"Turkey"}},{"type":"Feature","geometry":{"type":"Point","coordinates":[29.24142,40.97443]},"properties":{"name":"ZES Veysel Karani Kanuni Caddesi","coordinate":["40.97443,29.24142"],"municipality":"Istanbul","freeformAddress":"Kanuni Caddesi 158, 34885 Veysel Karani","country":"Turkey"}},{"type":"Feature","geometry":{"type":"Point","coordinates":[29.22954,40.97558]},"properties":{"name":"Eşarj Akpinar Tuna Caddesi","coordinate":["40.97558,29.22954"],"municipality":"Istanbul","freeformAddress":"Tuna Caddesi 39, 34885 Akpinar","country":"Turkey"}},{"type":"Feature","geometry":{"type":"Point","coordinates":[29.22796,40.97583]},"properties":{"name":"Eşarj Akpinar Tuna Caddesi","coordinate":["40.97583,29.22796"],"municipality":"Istanbul","freeformAddress":"Tuna Caddesi, 34885 Akpinar","country":"Turkey"}},{"type":"Feature","geometry":{"type":"Point","coordinates":[32.67498,41.25843]},"properties":{"name":"ZES Cemal Caymaz Halkevi Sokak","coordinate":["41.25843,32.67498"],"municipality":"Karabuk Centre","freeformAddress":"Halkevi Sokak, 78600 Cemal Caymaz","country":"Turkey"}},{"type":"Feature","geometry":{"type":"Point","coordinates":[33.76641,41.36342]},"properties":{"name":"ZES Saraçlar Kastamonu-Karabük Yolu","coordinate":["41.36342,33.76641"],"municipality":"Kastamonu Centre","freeformAddress":"Kastamonu-Karabük Yolu, 37100 Saraçlar","country":"Turkey"}},{"type":"Feature","geometry":{"type":"Point","coordinates":[35.9102,41.55712]},"properties":{"name":"ZES Emirefendi Karanfil 1. Sokak","coordinate":["41.55712,35.9102"],"municipality":"Samsun","freeformAddress":"Karanfil 1. Sokak, 55400 Emirefendi","country":"Turkey"}},{"type":"Feature","geometry":{"type":"Point","coordinates":[41.73511,42.04188]},"properties":{"name":"ლანჩხუთი","coordinate":["42.04188,41.73511"],"municipality":"ლანჩხუთი","freeformAddress":"ლანჩხუთი","country":"Georgia"}},{"type":"Feature","geometry":{"type":"Point","coordinates":[43.00834,42.1215]},"properties":{"name":"ზესტაფონი","coordinate":["42.1215,43.00834"],"municipality":"ზესტაფონი","freeformAddress":"ზესტაფონი","country":"Georgia"}},{"type":"Feature","geometry":{"type":"Point","coordinates":[29.12945,40.87474]},"properties":{"name":"bd oto Maden Altınordu Sokak","coordinate":["40.87474,29.12945"],"municipality":"Istanbul","freeformAddress":"Altınordu Sokak 17, 34970 Maden","country":"Turkey"}},{"type":"Feature","geometry":{"type":"Point","coordinates":[29.13263,40.8744]},"properties":{"name":"bd oto Maden Altınordu Sokak","coordinate":["40.8744,29.13263"],"municipality":"Istanbul","freeformAddress":"Altınordu Sokak 21, 34970 Maden","country":"Turkey"}},{"type":"Feature","geometry":{"type":"Point","coordinates":[29.1704,40.8937]},"properties":{"name":"ZES Kordonboyu Turgut Özal Bulvarı","coordinate":["40.8937,29.1704"],"municipality":"Istanbul","freeformAddress":"Turgut Özal Bulvarı, 34860 Kordonboyu","country":"Turkey"}},{"type":"Feature","geometry":{"type":"Point","coordinates":[29.20681,40.89214]},"properties":{"name":"DMA Çavuşoğlu Sanayi Caddesi","coordinate":["40.89214,29.20681"],"municipality":"Istanbul","freeformAddress":"Sanayi Caddesi, 34873 Çavuşoğlu","country":"Turkey"}},{"type":"Feature","geometry":{"type":"Point","coordinates":[29.21764,40.89945]},"properties":{"name":"GERSAN Topselvi Topselvi Caddesi","coordinate":["40.89945,29.21764"],"municipality":"Istanbul","freeformAddress":"Topselvi Caddesi, 34873 Topselvi","country":"Turkey"}},{"type":"Feature","geometry":{"type":"Point","coordinates":[29.22195,40.89712]},"properties":{"name":"GERSAN Yali Halk Sokak","coordinate":["40.89712,29.22195"],"municipality":"Istanbul","freeformAddress":"Halk Sokak, 34873 Yali","country":"Turkey"}},{"type":"Feature","geometry":{"type":"Point","coordinates":[29.22232,40.8981]},"properties":{"name":"GERSAN Yali Topselvi D-100 Güney Yanyol","coordinate":["40.8981,29.22232"],"municipality":"Istanbul","freeformAddress":"Topselvi D-100 Güney Yanyol, 34873 Yali","country":"Turkey"}},{"type":"Feature","geometry":{"type":"Point","coordinates":[29.2014,40.91099]},"properties":{"name":"ZES Orta Kaptanıderya Caddesi","coordinate":["40.91099,29.2014"],"municipality":"Istanbul","freeformAddress":"Kaptanıderya Caddesi, 34880 Orta","country":"Turkey"}},{"type":"Feature","geometry":{"type":"Point","coordinates":[29.13263,40.8744]},"properties":{"name":"bd oto Maden Altınordu Sokak","coordinate":["40.8744,29.13263"],"municipality":"Istanbul","freeformAddress":"Altınordu Sokak 21, 34970 Maden","country":"Turkey"}},{"type":"Feature","geometry":{"type":"Point","coordinates":[29.12945,40.87474]},"properties":{"name":"bd oto Maden Altınordu Sokak","coordinate":["40.87474,29.12945"],"municipality":"Istanbul","freeformAddress":"Altınordu Sokak 17, 34970 Maden","country":"Turkey"}},{"type":"Feature","geometry":{"type":"Point","coordinates":[29.17877,40.91729]},"properties":{"name":"Eşarj Soğanlik Yeni","coordinate":["40.91729,29.17877"],"municipality":"Istanbul","freeformAddress":"34880 Soğanlik Yeni","country":"Turkey"}},{"type":"Feature","geometry":{"type":"Point","coordinates":[29.17877,40.91729]},"properties":{"name":"Eşarj Soğanlik Yeni Pamukkale Sokak","coordinate":["40.91729,29.17877"],"municipality":"Istanbul","freeformAddress":"Pamukkale Sokak 2, 34880 Soğanlik Yeni","country":"Turkey"}},{"type":"Feature","geometry":{"type":"Point","coordinates":[29.17477,40.91837]},"properties":{"name":"ZES Soğanlik Yeni Cevizli Kavşağı","coordinate":["40.91837,29.17477"],"municipality":"Istanbul","freeformAddress":"Cevizli Kavşağı, 34880 Soğanlik Yeni","country":"Turkey"}},{"type":"Feature","geometry":{"type":"Point","coordinates":[29.27055,40.86748]},"properties":{"name":"ZES Kaynarca Çeşni Sokak","coordinate":["40.86748,29.27055"],"municipality":"Istanbul","freeformAddress":"Çeşni Sokak, 34890 Kaynarca","country":"Turkey"}},{"type":"Feature","geometry":{"type":"Point","coordinates":[29.27545,40.86629]},"properties":{"name":"Eşarj Çamçeşme Pandoya Alışveriş Merkezi Yolu","coordinate":["40.86629,29.27545"],"municipality":"Istanbul","freeformAddress":"Pandoya Alışveriş Merkezi Yolu 5, 34899 Çamçeşme","country":"Turkey"}},{"type":"Feature","geometry":{"type":"Point","coordinates":[29.27531,40.86579]},"properties":{"name":"Eşarj Çamçeşme Fabrika Sokak","coordinate":["40.86579,29.27531"],"municipality":"Istanbul","freeformAddress":"Fabrika Sokak 5, 34899 Çamçeşme","country":"Turkey"}},{"type":"Feature","geometry":{"type":"Point","coordinates":[29.25425,40.8976]},"properties":{"name":"ZES Velibaba Mukadder Sokak","coordinate":["40.8976,29.25425"],"municipality":"Istanbul","freeformAddress":"Mukadder Sokak, 34896 Velibaba","country":"Turkey"}},{"type":"Feature","geometry":{"type":"Point","coordinates":[29.27698,40.86236]},"properties":{"name":"DMA Güzelyali Bizim Sokak","coordinate":["40.86236,29.27698"],"municipality":"Istanbul","freeformAddress":"Bizim Sokak, 34903 Güzelyali","country":"Turkey"}},{"type":"Feature","geometry":{"type":"Point","coordinates":[29.28826,40.85681]},"properties":{"name":"Eşarj Aydintepe E-5 Yolu","coordinate":["40.85681,29.28826"],"municipality":"Istanbul","freeformAddress":"E-5 Yolu 2, 34947 Aydintepe","country":"Turkey"}},{"type":"Feature","geometry":{"type":"Point","coordinates":[29.2963,40.84937]},"properties":{"name":"ZES Aydintepe","coordinate":["40.84937,29.2963"],"municipality":"Istanbul","freeformAddress":"34947 Aydintepe","country":"Turkey"}},{"type":"Feature","geometry":{"type":"Point","coordinates":[29.22195,40.89712]},"properties":{"name":"GERSAN Yali Halk Sokak","coordinate":["40.89712,29.22195"],"municipality":"Istanbul","freeformAddress":"Halk Sokak, 34873 Yali","country":"Turkey"}},{"type":"Feature","geometry":{"type":"Point","coordinates":[29.22232,40.8981]},"properties":{"name":"GERSAN Yali Topselvi D-100 Güney Yanyol","coordinate":["40.8981,29.22232"],"municipality":"Istanbul","freeformAddress":"Topselvi D-100 Güney Yanyol, 34873 Yali","country":"Turkey"}},{"type":"Feature","geometry":{"type":"Point","coordinates":[29.37828,40.89111]},"properties":{"name":"Eşarj Orta Sabancı Üniversitesi Yolu","coordinate":["40.89111,29.37828"],"municipality":"Istanbul","freeformAddress":"Sabancı Üniversitesi Yolu, 34956 Orta","country":"Turkey"}},{"type":"Feature","geometry":{"type":"Point","coordinates":[29.37987,40.88958]},"properties":{"name":"Eşarj Orta Sabancı Üniversitesi Yolu","coordinate":["40.88958,29.37987"],"municipality":"Istanbul","freeformAddress":"Sabancı Üniversitesi Yolu 27, 34956 Orta","country":"Turkey"}},{"type":"Feature","geometry":{"type":"Point","coordinates":[29.39413,40.88743]},"properties":{"name":"GERSAN Aydinli Gazi Bulvarı","coordinate":["40.88743,29.39413"],"municipality":"Istanbul","freeformAddress":"Gazi Bulvarı, 34953 Aydinli","country":"Turkey"}},{"type":"Feature","geometry":{"type":"Point","coordinates":[29.3846,40.87522]},"properties":{"name":"bd oto Aydinli Üniversite Caddesi","coordinate":["40.87522,29.3846"],"municipality":"Istanbul","freeformAddress":"Üniversite Caddesi, 34953 Aydinli","country":"Turkey"}},{"type":"Feature","geometry":{"type":"Point","coordinates":[29.37947,40.86811]},"properties":{"name":"Eşarj Cumhuriyet Özgürlük Caddesi","coordinate":["40.86811,29.37947"],"municipality":"Kocaeli","freeformAddress":"Özgürlük Caddesi 11/A, 41420 Cumhuriyet","country":"Turkey"}},{"type":"Feature","geometry":{"type":"Point","coordinates":[29.37947,40.86811]},"properties":{"name":"Eşarj Cumhuriyet Baran Sokak","coordinate":["40.86811,29.37947"],"municipality":"Kocaeli","freeformAddress":"Baran Sokak, 41420 Cumhuriyet","country":"Turkey"}},{"type":"Feature","geometry":{"type":"Point","coordinates":[29.34822,40.91864]},"properties":{"name":"DMA Fatih","coordinate":["40.91864,29.34822"],"municipality":"Istanbul","freeformAddress":"34956 Fatih","country":"Turkey"}},