[{"type":"POI","id":"792009019290080","score":98.8184127808,"dist":1181.590454566639,"info":"search:ev:792009019290080","poi":{"name":"ZES","categorySet":[{"id":7309}],"categories":["electric vehicle station"],"classifications":[{"code":"ELECTRIC_VEHICLE_STATION","names":[{"nameLocale":"en-US","name":"electric vehicle station"}]}]},"address":{"municipality":"Kirklareli Centre","countryCode":"TR","country":"Turkey","countryCodeISO3":"TUR","freeformAddress":"Kirklareli Centre"},"position":{"lat":41.78823,"lon":27.2356},"viewport":{"topLeftPoint":{"lat":41.7894,"lon":27.23403},"btmRightPoint":{"lat":41.78706,"lon":27.23717}},"entryPoints":[{"type":"main","position":{"lat":41.78872,"lon":27.23417}}],"chargingPark":{"connectors":[{"connectorType":"IEC62196Type2Outlet","ratedPowerKW":22,"voltageV":400,"currentA":32,"currentType":"AC3"}]}},{"type":"POI","id":"792008000033889","score":98.0634231567,"dist":1936.58039438055,"info":"search:ev:792008000033889","poi":{"name":"Eşarj Abdurrahman Kelebek Sokak","phone":"+90 850 433 7275","categorySet":[{"id":7309}],"categories":["electric vehicle station"],"classifications":[{"code":"ELECTRIC_VEHICLE_STATION","names":[{"nameLocale":"en-US","name":"electric vehicle station"}]}]},"address":{"streetName":"Kelebek Sokak","municipality":"Edirne Centre","postalCode":"22100","countryCode":"TR","country":"Turkey","countryCodeISO3":"TUR","freeformAddress":"Kelebek Sokak, 22100 Abdurrahman","localName":"Abdurrahman"},"position":{"lat":41.66628,"lon":26.57063},"viewport":{"topLeftPoint":{"lat":41.66718,"lon":26.56943},"btmRightPoint":{"lat":41.66538,"lon":26.57183}},"entryPoints":[{"type":"main","position":{"lat":41.66641,"lon":26.57033}}],"chargingPark":{"connectors":[{"connectorType":"IEC62196Type2Outlet","ratedPowerKW":22,"voltageV":400,"currentA":32,"currentType":"AC3"},{"connectorType":"IEC62196Type2CCS","ratedPowerKW":50,"voltageV":400,"currentA":125,"currentType":"DC"},{"connectorType":"Chademo","ratedPowerKW":50,"voltageV":400,"currentA":125,"currentType":"DC"}]}},{"type":"POI","id":"792009018002672","score":98.0174407959,"dist":1982.5554162285946,"info":"search:ev:792009018002672","poi":{"name":"ZES Abdurrahman Kelebek Sokak","categorySet":[{"id":7309}],"categories":["electric vehicle station"],"classifications":[{"code":"ELECTRIC_VEHICLE_STATION","names":[{"nameLocale":"en-US","name":"electric vehicle station"}]}]},"address":{"streetNumber":"59","streetName":"Kelebek Sokak","municipality":"Edirne Centre","postalCode":"22100","countryCode":"TR","country":"Turkey","countryCodeISO3":"TUR","freeformAddress":"Kelebek Sokak 59, 22100 Abdurrahman","localName":"Abdurrahman"},"position":{"lat":41.66678,"lon":26.5709},"viewport":{"topLeftPoint":{"lat":41.66768,"lon":26.5697},"btmRightPoint":{"lat":41.66588,"lon":26.5721}},"entryPoints":[{"type":"main","position":{"lat":41.66688,"lon":26.57071}}],"chargingPark":{"connectors":[{"connectorType":"IEC62196Type2Outlet","ratedPowerKW":22,"voltageV":400,"currentA":32,"currentType":"AC3"}]}},{"type":"POI","id":"300009003892999","score":98.3547897339,"dist":1645.212339017794,"info":"search:ev:300009003892999","poi":{"name":"Ορεστιάδα Βασιλέως Κωνσταντίνου","phone":"+30 21 0723 2862","categorySet":[{"id":7309}],"categories":["electric vehicle station"],"classifications":[{"code":"ELECTRIC_VEHICLE_STATION","names":[{"nameLocale":"en-US","name":"electric vehicle station"}]}]},"address":{"streetName":"Βασιλέως Κωνσταντίνου","municipality":"Ορεστιάδα","countrySecondarySubdivision":"Έβρος","countrySubdivision":"East Macedonia & Thrace","postalCode":"68200","countryCode":"GR","country":"Greece","countryCodeISO3":"GRC","freeformAddress":"Βασιλέως Κωνσταντίνου, 68200 Ορεστιάδα","localName":"Ορεστιάδα"},"position":{"lat":41.50299,"lon":26.53556},"viewport":{"topLeftPoint":{"lat":41.50389,"lon":26.53436},"btmRightPoint":{"lat":41.50209,"lon":26.53676}},"entryPoints":[{"type":"main","position":{"lat":41.50301,"lon":26.53556}}],"chargingPark":{"connectors":[{"connectorType":"IEC62196Type2Outlet","ratedPowerKW":22,"voltageV":400,"currentA":32,"currentType":"AC3"}]}},{"type":"POI","id":"792009018002808","score":95.8946151733,"dist":4105.382715999027,"info":"search:ev:792009018002808","poi":{"name":"ZES","categorySet":[{"id":7309}],"categories":["electric vehicle station"],"classifications":[{"code":"ELECTRIC_VEHICLE_STATION","names":[{"nameLocale":"en-US","name":"electric vehicle station"}]}]},"address":{"municipalitySubdivision":"Luleburgaz","municipality":"Kirklareli Centre","countryCode":"TR","country":"Turkey","countryCodeISO3":"TUR","freeformAddress":"Kirklareli Centre (Luleburgaz)"},"position":{"lat":41.54397,"lon":27.2996},"viewport":{"topLeftPoint":{"lat":41.54808,"lon":27.29411},"btmRightPoint":{"lat":41.53986,"lon":27.30509}},"entryPoints":[{"type":"main","position":{"lat":41.5421,"lon":27.30449}}],"chargingPark":{"connectors":[{"connectorType":"IEC62196Type2Outlet","ratedPowerKW":22,"voltageV":400,"currentA":32,"currentType":"AC3"}]}},{"type":"POI","id":"792009018330636","score":96.1854095459,"dist":3814.587310313632,"info":"search:ev:792009018330636","poi":{"name":"GERSAN İstiklal","categorySet":[{"id":7309}],"categories":["electric vehicle station"],"classifications":[{"code":"ELECTRIC_VEHICLE_STATION","names":[{"nameLocale":"en-US","name":"electric vehicle station"}]}]},"address":{"municipalitySubdivision":"İstiklal","municipality":"Kirklareli Centre","postalCode":"39750","countryCode":"TR","country":"Turkey","countryCodeISO3":"TUR","freeformAddress":"39750 İstiklal","localName":"İstiklal"},"position":{"lat":41.39827,"lon":27.37362},"viewport":{"topLeftPoint":{"lat":41.39917,"lon":27.37242},"btmRightPoint":{"lat":41.39737,"lon":27.37482}},"entryPoints":[{"type":"main","position":{"lat":41.39847,"lon":27.37384}}],"chargingPark":{"connectors":[{"connectorType":"IEC62196Type2Outlet","ratedPowerKW":22,"voltageV":400,"currentA":32,"currentType":"AC3"}]}},{"type":"POI","id":"792009018002542","score":95.2538528442,"dist":4746.149553556064,"info":"search:ev:792009018002542","poi":{"name":"ZES Durak İstasyon Caddesi","categorySet":[{"id":7309}],"categories":["electric vehicle station"],"classifications":[{"code":"ELECTRIC_VEHICLE_STATION","names":[{"nameLocale":"en-US","name":"electric vehicle station"}]}]},"address":{"streetNumber":"151","streetName":"İstasyon Caddesi","municipalitySubdivision":"8 Kasım","municipality":"Kirklareli Centre","postalCode":"39750","countryCode":"TR","country":"Turkey","countryCodeISO3":"TUR","freeformAddress":"İstasyon Caddesi 151, 39750 Durak","localName":"Durak"},"position":{"lat":41.386,"lon":27.3493},"viewport":{"topLeftPoint":{"lat":41.38754,"lon":27.34725},"btmRightPoint":{"lat":41.38446,"lon":27.35135}},"entryPoints":[{"type":"main","position":{"lat":41.38572,"lon":27.34728}}],"chargingPark":{"connectors":[{"connectorType":"IEC62196Type2Outlet","ratedPowerKW":22,"voltageV":400,"currentA":32,"currentType":"AC3"}]}},{"type":"POI","id":"792009018002576","score":95.8248596191,"dist":4175.143832155356,"info":"search:ev:792009018002576","poi":{"name":"ZES Gelincik Özveri Yapı Sokak","categorySet":[{"id":7309}],"categories":["electric vehicle station"],"classifications":[{"code":"ELECTRIC_VEHICLE_STATION","names":[{"nameLocale":"en-US","name":"electric vehicle station"}]}]},"address":{"streetNumber":"85","streetName":"Özveri Yapı Sokak","municipalitySubdivision":"Gelincik","municipality":"Sinop Centre","postalCode":"57000","countryCode":"TR","country":"Turkey","countryCodeISO3":"TUR","freeformAddress":"Özveri Yapı Sokak 85, 57000 Gelincik","localName":"Gelincik"},"position":{"lat":42.01381,"lon":35.11833},"viewport":{"topLeftPoint":{"lat":42.01471,"lon":35.11712},"btmRightPoint":{"lat":42.01291,"lon":35.11954}},"entryPoints":[{"type":"main","position":{"lat":42.01382,"lon":35.11823}}],"chargingPark":{"connectors":[{"connectorType":"IEC62196Type2Outlet","ratedPowerKW":22,"voltageV":400,"currentA":32,"currentType":"AC3"}]}},{"type":"POI","id":"268009000212851","score":95.4992752075,"dist":4500.726351460498,"info":"search:ev:268009000212851","poi":{"name":"ჩხოროწყუ","phone":"+995 32 243 34 73","categorySet":[{"id":7309}],"categories":["electric vehicle station"],"classifications":[{"code":"ELECTRIC_VEHICLE_STATION","names":[{"nameLocale":"en-US","name":"electric vehicle station"}]}]},"address":{"municipality":"ჩხოროწყუ","countryCode":"GE","country":"Georgia","countryCodeISO3":"GEO","freeformAddress":"ჩხოროწყუ","localName":"ჩხოროწყუ"},"position":{"lat":42.5191,"lon":42.12732},"viewport":{"topLeftPoint":{"lat":42.52,"lon":42.1261},"btmRightPoint":{"lat":42.5182,"lon":42.12854}},"entryPoints":[{"type":"main","position":{"lat":42.51927,"lon":42.12702}}],"chargingPark":{"connectors":[{"connectorType":"IEC62196Type2Outlet","ratedPowerKW":22,"voltageV":400,"currentA":32,"currentType":"AC3"}]}},{"type":"POI","id":"792009018002866","score":95.8288421631,"dist":4171.15910973631,"info":"search:ev:792009018002866","poi":{"name":"ZES İstanbul-Edirne Yolu","categorySet":[{"id":7309}],"categories":["electric vehicle station"],"classifications":[{"code":"ELECTRIC_VEHICLE_STATION","names":[{"nameLocale":"en-US","name":"electric vehicle station"}]}]},"address":{"municipalitySubdivision":"Luleburgaz","municipality":"Kirklareli Centre","countryCode":"TR","country":"Turkey","countryCodeISO3":"TUR","freeformAddress":"Kirklareli Centre (Luleburgaz)"},"position":{"lat":41.28164,"lon":27.58936},"viewport":{"topLeftPoint":{"lat":41.28254,"lon":27.58816},"btmRightPoint":{"lat":41.28074,"lon":27.59056}},"entryPoints":[{"type":"main","position":{"lat":41.28204,"lon":27.5895}}],"chargingPark":{"connectors":[{"connectorType":"IEC62196Type2Outlet","ratedPowerKW":22,"voltageV":400,"currentA":32,"currentType":"AC3"},{"connectorType":"IEC62196Type2CCS","ratedPowerKW":90,"voltageV":450,"currentA":200,"currentType":"DC"},{"connectorType":"Chademo","ratedPowerKW":90,"voltageV":450,"currentA":200,"currentType":"DC"}]}},{"type":"POI","id":"792009018002520","score":95.2683410645,"dist":4731.658079194653,"info":"search:ev:792009018002520","poi":{"name":"ZES İsmet Paşa 31. Sokak","categorySet":[{"id":7309}],"categories":["electric vehicle station"],"classifications":[{"code":"ELECTRIC_VEHICLE_STATION","names":[{"nameLocale":"en-US","name":"electric vehicle station"}]}]},"address":{"streetName":"31. Sokak","municipalitySubdivision":"İsmet Paşa","municipality":"Tekirdag","postalCode":"59510","countryCode":"TR","country":"Turkey","countryCodeISO3":"TUR","freeformAddress":"31. Sokak, 59510 İsmet Paşa","localName":"İsmet Paşa"},"position":{"lat":41.3189,"lon":27.9792},"viewport":{"topLeftPoint":{"lat":41.3198,"lon":27.978},"btmRightPoint":{"lat":41.318,"lon":27.9804}},"entryPoints":[{"type":"main","position":{"lat":41.31884,"lon":27.97911}}],"chargingPark":{"connectors":[{"connectorType":"IEC62196Type2Outlet","ratedPowerKW":22,"voltageV":400,"currentA":32,"currentType":"AC3"}]}},{"type":"POI","id":"792009018002731","score":95.1001358032,"dist":4899.866720316247,"info":"search:ev:792009018002731","poi":{"name":"ZES İnönü","categorySet":[{"id":7309}],"categories":["electric vehicle station"],"classifications":[{"code":"ELECTRIC_VEHICLE_STATION","names":[{"nameLocale":"en-US","name":"electric vehicle station"}]}]},"address":{"municipalitySubdivision":"İnönü","municipality":"Tekirdag","postalCode":"59510","countryCode":"TR","country":"Turkey","countryCodeISO3":"TUR","freeformAddress":"59510 İnönü","localName":"İnönü"},"position":{"lat":41.3209,"lon":27.96728},"viewport":{"topLeftPoint":{"lat":41.3218,"lon":27.96608},"btmRightPoint":{"lat":41.32,"lon":27.96848}},"entryPoints":[{"type":"main","position":{"lat":41.32094,"lon":27.96701}}],"chargingPark":{"connectors":[{"connectorType":"IEC62196Type2Outlet","ratedPowerKW":22,"voltageV":400,"currentA":32,"currentType":"AC3"}]}},{"type":"POI","id":"268009000212861","score":96.3472518921,"dist":3652.749896920862,"info":"search:ev:268009000212861","poi":{"name":"ზუგდიდი","phone":"+995 32 243 34 73","categorySet":[{"id":7309}],"categories":["electric vehicle station"],"classifications":[{"code":"ELECTRIC_VEHICLE_STATION","names":[{"nameLocale":"en-US","name":"electric vehicle station"}]}]},"address":{"municipality":"ზუგდიდი","countryCode":"GE","country":"Georgia","countryCodeISO3":"GEO","freeformAddress":"ზუგდიდი","localName":"ზუგდიდი"},"position":{"lat":42.48997,"lon":41.86118},"viewport":{"topLeftPoint":{"lat":42.49087,"lon":41.85996},"btmRightPoint":{"lat":42.48907,"lon":41.8624}},"entryPoints":[{"type":"main","position":{"lat":42.49005,"lon":41.86119}}],"chargingPark":{"connectors":[{"connectorType":"IEC62196Type2Outlet","ratedPowerKW":22,"voltageV":400,"currentA":32,"currentType":"AC3"}]}},{"type":"POI","id":"792009018002467","score":96.4807815552,"dist":3519.218111326017,"info":"search:ev:792009018002467","poi":{"name":"Eşarj Tayakadin Kuzey Marmara Otoyolu","phone":"+90 850 433 7275","categorySet":[{"id":7309}],"categories":["electric vehicle station"],"classifications":[{"code":"ELECTRIC_VEHICLE_STATION","names":[{"nameLocale":"en-US","name":"electric vehicle station"}]}]},"address":{"streetName":"Kuzey Marmara Otoyolu","municipalitySubdivision":"Arnavutkoy","municipality":"Istanbul","postalCode":"34283","countryCode":"TR","country":"Turkey","countryCodeISO3":"TUR","freeformAddress":"Kuzey Marmara Otoyolu, 34283 Tayakadin","localName":"Tayakadin"},"position":{"lat":41.24524,"lon":28.70234},"viewport":{"topLeftPoint":{"lat":41.24614,"lon":28.70114},"btmRightPoint":{"lat":41.24434,"lon":28.70354}},"entryPoints":[{"type":"main","position":{"lat":41.24464,"lon":28.70225}}],"chargingPark":{"connectors":[{"connectorType":"Chademo","ratedPowerKW":50,"voltageV":400,"currentA":125,"currentType":"DC"},{"connectorType":"IEC62196Type2CCS","ratedPowerKW":50,"voltageV":400,"currentA":125,"currentType":"DC"},{"connectorType":"IEC62196Type2Outlet","ratedPowerKW":22,"voltageV":400,"currentA":32,"currentType":"AC3"}]}},{"type":"POI","id":"792009018002460","score":96.4302825928,"dist":3569.7202918778044,"info":"search:ev:792009018002460","poi":{"name":"Eşarj Tayakadin Kuzey Marmara Otoyolu","phone":"+90 850 433 7275","categorySet":[{"id":7309}],"categories":["electric vehicle station"],"classifications":[{"code":"ELECTRIC_VEHICLE_STATION","names":[{"nameLocale":"en-US","name":"electric vehicle station"}]}]},"address":{"streetName":"Kuzey Marmara Otoyolu","municipalitySubdivision":"Arnavutkoy","municipality":"Istanbul","postalCode":"34283","countryCode":"TR","country":"Turkey","countryCodeISO3":"TUR","freeformAddress":"Kuzey Marmara Otoyolu, 34283 Tayakadin","localName":"Tayakadin"},"position":{"lat":41.24531,"lon":28.70126},"viewport":{"topLeftPoint":{"lat":41.24621,"lon":28.70006},"btmRightPoint":{"lat":41.24441,"lon":28.70246}},"entryPoints":[{"type":"main","position":{"lat":41.2447,"lon":28.7012}}],"chargingPark":{"connectors":[{"connectorType":"Chademo","ratedPowerKW":50,"voltageV":400,"currentA":125,"currentType":"DC"},{"connectorType":"IEC62196Type2Outlet","ratedPowerKW":22.2,"voltageV":400,"currentA":32,"currentType":"AC3"},{"connectorType":"IEC62196Type2CCS","ratedPowerKW":50,"voltageV":400,"currentA":125,"currentType":"DC"}]}},{"type":"POI","id":"792009018002624","score":97.5257034302,"dist":2474.294768964883,"info":"search:ev:792009018002624","poi":{"name":"ZES Gerede-Bartın Yolu","categorySet":[{"id":7309}],"categories":["electric vehicle station"],"classifications":[{"code":"ELECTRIC_VEHICLE_STATION","names":[{"nameLocale":"en-US","name":"electric vehicle station"}]}]},"address":{"municipality":"Bartin Centre","countryCode":"TR","country":"Turkey","countryCodeISO3":"TUR","freeformAddress":"Bartin Centre"},"position":{"lat":41.57301,"lon":32.32307},"viewport":{"topLeftPoint":{"lat":41.57391,"lon":32.32187},"btmRightPoint":{"lat":41.57211,"lon":32.32427}},"entryPoints":[{"type":"main","position":{"lat":41.57295,"lon":32.3235}}],"chargingPark":{"connectors":[{"connectorType":"IEC62196Type2Outlet","ratedPowerKW":22,"voltageV":400,"currentA":32,"currentType":"AC3"}]}},{"type":"POI","id":"792009018002503","score":95.5531158447,"dist":4446.881520472268,"info":"search:ev:792009018002503","poi":{"name":"ZES Şiremirçavuş Cumhuriyet Caddesi","categorySet":[{"id":7309}],"categories":["electric vehicle station"],"classifications":[{"code":"ELECTRIC_VEHICLE_STATION","names":[{"nameLocale":"en-US","name":"electric vehicle station"}]}]},"address":{"streetName":"Cumhuriyet Caddesi","municipalitySubdivision":"Şiremirçavuş","municipality":"Bartin Centre","postalCode":"74110","countryCode":"TR","country":"Turkey","countryCodeISO3":"TUR","freeformAddress":"Cumhuriyet Caddesi, 74110 Şiremirçavuş","localName":"Şiremirçavuş"},"position":{"lat":41.61502,"lon":32.32302},"viewport":{"topLeftPoint":{"lat":41.61592,"lon":32.32182},"btmRightPoint":{"lat":41.61412,"lon":32.32422}},"entryPoints":[{"type":"main","position":{"lat":41.61503,"lon":32.32324}}],"chargingPark":{"connectors":[{"connectorType":"IEC62196Type2Outlet","ratedPowerKW":22,"voltageV":400,"currentA":32,"currentType":"AC3"}]}},{"type":"POI","id":"792009018002602","score":97.8845596313,"dist":2115.4422609262615,"info":"search:ev:792009018002602","poi":{"name":"Eşarj Önerler","phone":"+90 850 433 7275","categorySet":[{"id":7309}],"categories":["electric vehicle station"],"classifications":[{"code":"ELECTRIC_VEHICLE_STATION","names":[{"nameLocale":"en-US","name":"electric vehicle station"}]}]},"address":{"municipalitySubdivision":"Önerler","municipality":"Tekirdag","postalCode":"59860","countryCode":"TR","country":"Turkey","countryCodeISO3":"TUR","freeformAddress":"59860 Önerler","localName":"Önerler"},"position":{"lat":41.14243,"lon":27.86304},"viewport":{"topLeftPoint":{"lat":41.14333,"lon":27.86185},"btmRightPoint":{"lat":41.14153,"lon":27.86423}},"entryPoints":[{"type":"main","position":{"lat":41.14243,"lon":27.86304}}],"chargingPark":{"connectors":[{"connectorType":"IEC62196Type2Outlet","ratedPowerKW":22,"voltageV":400,"currentA":32,"currentType":"AC3"}]}},{"type":"POI","id":"792009019290088","score":97.0040664673,"dist":2995.9324623946636,"info":"search:ev:792009019290088","poi":{"name":"ZES Zafer Bülent Ecevit Bulvarı","categorySet":[{"id":7309}],"categories":["electric vehicle station"],"classifications":[{"code":"ELECTRIC_VEHICLE_STATION","names":[{"nameLocale":"en-US","name":"electric vehicle station"}]}]},"address":{"streetName":"Bülent Ecevit Bulvarı","municipalitySubdivision":"Corlu","municipality":"Tekirdag","postalCode":"59850","countryCode":"TR","country":"Turkey","countryCodeISO3":"TUR","freeformAddress":"Bülent Ecevit Bulvarı, 59850 Zafer","localName":"Zafer"},"position":{"lat":41.14607,"lon":27.84967},"viewport":{"topLeftPoint":{"lat":41.14697,"lon":27.84848},"btmRightPoint":{"lat":41.14517,"lon":27.85086}},"entryPoints":[{"type":"main","position":{"lat":41.14605,"lon":27.84979}}],"chargingPark":{"connectors":[{"connectorType":"IEC62196Type2Outlet","ratedPowerKW":22,"voltageV":400,"currentA":32,"currentType":"AC3"}]}},{"type":"POI","id":"792009018002511","score":95.8103713989,"dist":4189.627562179252,"info":"search:ev:792009018002511","poi":{"name":"ZES Alipaşa 19 Mayıs Caddesi","categorySet":[{"id":7309}],"categories":["electric vehicle station"],"classifications":[{"code":"ELECTRIC_VEHICLE_STATION","names":[{"nameLocale":"en-US","name":"electric vehicle station"}]}]},"address":{"streetNumber":"19","streetName":"19 Mayıs Caddesi","municipalitySubdivision":"Alipaşa","municipality":"Tekirdag","postalCode":"59850","countryCode":"TR","country":"Turkey","countryCodeISO3":"TUR","freeformAddress":"19 Mayıs Caddesi 19, 59850 Alipaşa","localName":"Alipaşa"},"position":{"lat":41.15018,"lon":27.8344},"viewport":{"topLeftPoint":{"lat":41.15108,"lon":27.83321},"btmRightPoint":{"lat":41.14928,"lon":27.83559}},"entryPoints":[{"type":"main","position":{"lat":41.15039,"lon":27.83356}}],"chargingPark":{"connectors":[{"connectorType":"IEC62196Type2Outlet","ratedPowerKW":22,"voltageV":400,"currentA":32,"currentType":"AC3"}]}},{"type":"POI","id":"792009018002543","score":97.0669555664,"dist":2933.0447344137638,"info":"search:ev:792009018002543","poi":{"name":"ZES Anadolu Eski Edirne Caddesi","categorySet":[{"id":7309}],"categories":["electric vehicle station"],"classifications":[{"code":"ELECTRIC_VEHICLE_STATION","names":[{"nameLocale":"en-US","name":"electric vehicle station"}]}]},"address":{"streetName":"Eski Edirne Caddesi","municipalitySubdivision":"Arnavutkoy","municipality":"Istanbul","postalCode":"34275","countryCode":"TR","country":"Turkey","countryCodeISO3":"TUR","freeformAddress":"Eski Edirne Caddesi, 34275 Anadolu","localName":"Anadolu"},"position":{"lat":41.17774,"lon":28.74802},"viewport":{"topLeftPoint":{"lat":41.17864,"lon":28.74683},"btmRightPoint":{"lat":41.17684,"lon":28.74921}},"entryPoints":[{"type":"main","position":{"lat":41.17763,"lon":28.74768}}],"chargingPark":{"connectors":[{"connectorType":"IEC62196Type2Outlet","ratedPowerKW":22,"voltageV":400,"currentA":32,"currentType":"AC3"}]}},{"type":"POI","id":"792009018002769","score":99.1716537476,"dist":828.349537993506,"info":"search:ev:792009018002769","poi":{"name":"Eşarj Pirinççi","phone":"+90 850 433 7275","categorySet":[{"id":7309}],"categories":["electric vehicle station"],"classifications":[{"code":"ELECTRIC_VEHICLE_STATION","names":[{"nameLocale":"en-US","name":"electric vehicle station"}]}]},"address":{"municipalitySubdivision":"Eyup","municipality":"Istanbul","postalCode":"34076","countryCode":"TR","country":"Turkey","countryCodeISO3":"TUR","freeformAddress":"34076 Pirinççi","localName":"Pirinççi"},"position":{"lat":41.19874,"lon":28.82258},"viewport":{"topLeftPoint":{"lat":41.20246,"lon":28.81764},"btmRightPoint":{"lat":41.19502,"lon":28.82752}},"entryPoints":[{"type":"main","position":{"lat":41.20237,"lon":28.82364}}],"chargingPark":{"connectors":[{"connectorType":"Chademo","ratedPowerKW":50,"voltageV":400,"currentA":125,"currentType":"DC"},{"connectorType":"IEC62196Type2CCS","ratedPowerKW":50,"voltageV":400,"currentA":125,"currentType":"DC"},{"connectorType":"IEC62196Type2Outlet","ratedPowerKW":22,"voltageV":400,"currentA":32,"currentType":"AC3"}]}},{"type":"POI","id":"792009006035261","score":99.1163101196,"dist":883.6872231322843,"info":"search:ev:792009006035261","poi":{"name":"Eşarj Pirinççi","phone":"+90 850 433 7275","categorySet":[{"id":7309}],"categories":["electric vehicle station"],"classifications":[{"code":"ELECTRIC_VEHICLE_STATION","names":[{"nameLocale":"en-US","name":"electric vehicle station"}]}]},"address":{"municipalitySubdivision":"Eyup","municipality":"Istanbul","postalCode":"34076","countryCode":"TR","country":"Turkey","countryCodeISO3":"TUR","freeformAddress":"34076 Pirinççi","localName":"Pirinççi"},"position":{"lat":41.19825,"lon":28.8227},"viewport":{"topLeftPoint":{"lat":41.20232,"lon":28.81729},"btmRightPoint":{"lat":41.19418,"lon":28.82811}},"entryPoints":[{"type":"main","position":{"lat":41.20226,"lon":28.82364}}],"chargingPark":{"connectors":[{"connectorType":"IEC62196Type2Outlet","ratedPowerKW":22,"voltageV":400,"currentA":32,"currentType":"AC3"}]}},{"type":"POI","id":"792009018446922","score":99.111114502,"dist":888.8831124052501,"info":"search:ev:792009018446922","poi":{"name":"ZES Pirinççi","categorySet":[{"id":7309}],"categories":["electric vehicle station"],"classifications":[{"code":"ELECTRIC_VEHICLE_STATION","names":[{"nameLocale":"en-US","name":"electric vehicle station"}]}]},"address":{"municipalitySubdivision":"Eyup","municipality":"Istanbul","postalCode":"34076","countryCode":"TR","country":"Turkey","countryCodeISO3":"TUR","freeformAddress":"34076 Pirinççi","localName":"Pirinççi"},"position":{"lat":41.19819,"lon":28.82263},"viewport":{"topLeftPoint":{"lat":41.20225,"lon":28.81723},"btmRightPoint":{"lat":41.19413,"lon":28.82803}},"entryPoints":[{"type":"main","position":{"lat":41.20218,"lon":28.82365}}],"chargingPark":{"connectors":[{"connectorType":"IEC62196Type2Outlet","ratedPowerKW":22,"voltageV":400,"currentA":32,"currentType":"AC3"}]}},{"type":"POI","id":"792009006035275","score":98.9071731567,"dist":1092.826841628393,"info":"search:ev:792009006035275","poi":{"name":"Eşarj Pirinççi","phone":"+90 850 433 7275","categorySet":[{"id":7309}],"categories":["electric vehicle station"],"classifications":[{"code":"ELECTRIC_VEHICLE_STATION","names":[{"nameLocale":"en-US","name":"electric vehicle station"}]}]},"address":{"municipalitySubdivision":"Eyup","municipality":"Istanbul","postalCode":"34076","countryCode":"TR","country":"Turkey","countryCodeISO3":"TUR","freeformAddress":"34076 Pirinççi","localName":"Pirinççi"},"position":{"lat":41.19701,"lon":28.82561},"viewport":{"topLeftPoint":{"lat":41.20173,"lon":28.81933},"btmRightPoint":{"lat":41.19229,"lon":28.83189}},"entryPoints":[{"type":"main","position":{"lat":41.19234,"lon":28.82466}}],"chargingPark":{"connectors":[{"connectorType":"IEC62196Type2Outlet","ratedPowerKW":22,"voltageV":400,"currentA":32,"currentType":"AC3"}]}},{"type":"POI","id":"792009018002506","score":98.8132553101,"dist":1186.743309472072,"info":"search:ev:792009018002506","poi":{"name":"Eşarj Pirinççi","phone":"+90 850 433 7275","categorySet":[{"id":7309}],"categories":["electric vehicle station"],"classifications":[{"code":"ELECTRIC_VEHICLE_STATION","names":[{"nameLocale":"en-US","name":"electric vehicle station"}]}]},"address":{"municipalitySubdivision":"Eyup","municipality":"Istanbul","postalCode":"34076","countryCode":"TR","country":"Turkey","countryCodeISO3":"TUR","freeformAddress":"34076 Pirinççi","localName":"Pirinççi"},"position":{"lat":41.19627,"lon":28.82616},"viewport":{"topLeftPoint":{"lat":41.19717,"lon":28.82496},"btmRightPoint":{"lat":41.19537,"lon":28.82736}},"entryPoints":[{"type":"main","position":{"lat":41.19638,"lon":28.82602}}],"chargingPark":{"connectors":[{"connectorType":"Chademo","ratedPowerKW":50,"voltageV":400,"currentA":125,"currentType":"DC"},{"connectorType":"IEC62196Type2CCS","ratedPowerKW":50,"voltageV":400,"currentA":125,"currentType":"DC"},{"connectorType":"IEC62196Type2Outlet","ratedPowerKW":22,"voltageV":400,"currentA":32,"currentType":"AC3"}]}},{"type":"POI","id":"792009018002559","score":98.7636642456,"dist":1236.3333680499675,"info":"search:ev:792009018002559","poi":{"name":"ZES Pirinççi","categorySet":[{"id":7309}],"categories":["electric vehicle station"],"classifications":[{"code":"ELECTRIC_VEHICLE_STATION","names":[{"nameLocale":"en-US","name":"electric vehicle station"}]}]},"address":{"municipalitySubdivision":"Eyup","municipality":"Istanbul","postalCode":"34076","countryCode":"TR","country":"Turkey","countryCodeISO3":"TUR","freeformAddress":"34076 Pirinççi","localName":"Pirinççi"},"position":{"lat":41.1957,"lon":28.8259},"viewport":{"topLeftPoint":{"lat":41.19947,"lon":28.82089},"btmRightPoint":{"lat":41.19193,"lon":28.83091}},"entryPoints":[{"type":"main","position":{"lat":41.19206,"lon":28.82461}}],"chargingPark":{"connectors":[{"connectorType":"Chademo","ratedPowerKW":50,"voltageV":400,"currentA":125,"currentType":"DC"},{"connectorType":"IEC62196Type2CCS","ratedPowerKW":50,"voltageV":400,"currentA":125,"currentType":"DC"},{"connectorType":"IEC62196Type2Outlet","ratedPowerKW":22,"voltageV":400,"currentA":32,"currentType":"AC3"}]}},{"type":"POI","id":"792009018002550","score":96.3214950562,"dist":3678.5071255400753,"info":"search:ev:792009018002550","poi":{"name":"ZES İhsaniye İhsaniye İstanbul Caddesi","categorySet":[{"id":7309}],"categories":["electric vehicle station"],"classifications":[{"code":"ELECTRIC_VEHICLE_STATION","names":[{"nameLocale":"en-US","name":"electric vehicle station"}]}]},"address":{"streetName":"İhsaniye İstanbul Caddesi","municipalitySubdivision":"Eyup","municipality":"Istanbul","postalCode":"34076","countryCode":"TR","country":"Turkey","countryCodeISO3":"TUR","freeformAddress":"İhsaniye İstanbul Caddesi, 34076 İhsaniye","localName":"İhsaniye"},"position":{"lat":41.238,"lon":28.8092},"viewport":{"topLeftPoint":{"lat":41.2389,"lon":28.808},"btmRightPoint":{"lat":41.2371,"lon":28.8104}},"entryPoints":[{"type":"main","position":{"lat":41.23848,"lon":28.80841}}],"chargingPark":{"connectors":[{"connectorType":"IEC62196Type2Outlet","ratedPowerKW":22,"voltageV":400,"currentA":32,"currentType":"AC3"}]}},{"type":"POI","id":"792009018093203","score":97.4885025024,"dist":2511.501130652761,"info":"search:ev:792009018093203","poi":{"name":"ZES Çiftalan Kuzey Marmara Otoyolu","categorySet":[{"id":7309}],"categories":["electric vehicle station"],"classifications":[{"code":"ELECTRIC_VEHICLE_STATION","names":[{"nameLocale":"en-US","name":"electric vehicle station"}]}]},"address":{"streetName":"Kuzey Marmara Otoyolu","municipalitySubdivision":"Eyup","municipality":"Istanbul","postalCode":"34076","countryCode":"TR","country":"Turkey","countryCodeISO3":"TUR","freeformAddress":"Kuzey Marmara Otoyolu, 34076 Çiftalan","localName":"Çiftalan"},"position":{"lat":41.23597,"lon":28.90753},"viewport":{"topLeftPoint":{"lat":41.23965,"lon":28.90264},"btmRightPoint":{"lat":41.23229,"lon":28.91242}},"entryPoints":[{"type":"main","position":{"lat":41.2352,"lon":28.91231}}],"chargingPark":{"connectors":[{"connectorType":"IEC62196Type2Outlet","ratedPowerKW":22,"voltageV":400,"currentA":32,"currentType":"AC3"}]}},{"type":"POI","id":"792008000033893","score":98.075012207,"dist":1924.9885224262375,"info":"search:ev:792008000033893","poi":{"name":"Eşarj Zekeriyaköy 1. Cadde","phone":"+90 850 433 7275","categorySet":[{"id":7309}],"categories":["electric vehicle station"],"classifications":[{"code":"ELECTRIC_VEHICLE_STATION","names":[{"nameLocale":"en-US","name":"electric vehicle station"}]}]},"address":{"streetNumber":"9","streetName":"1. Cadde","municipalitySubdivision":"Zekeriyaköy","municipality":"Istanbul","postalCode":"34450","countryCode":"TR","country":"Turkey","countryCodeISO3":"TUR","freeformAddress":"1. Cadde 9, 34450 Zekeriyaköy","localName":"Zekeriyaköy"},"position":{"lat":41.21735,"lon":29.03239},"viewport":{"topLeftPoint":{"lat":41.21825,"lon":29.03119},"btmRightPoint":{"lat":41.21645,"lon":29.03359}},"entryPoints":[{"type":"main","position":{"lat":41.21814,"lon":29.03177}}],"chargingPark":{"connectors":[{"connectorType":"IEC62196Type2Outlet","ratedPowerKW":22,"voltageV":400,"currentA":32,"currentType":"AC3"}]}},{"type":"POI","id":"792009018736863","score":97.8285064697,"dist":2171.49002616376,"info":"search:ev:792009018736863","poi":{"name":"ZES Zekeriyaköy Kilyos Caddesi","categorySet":[{"id":7309}],"categories":["electric vehicle station"],"classifications":[{"code":"ELECTRIC_VEHICLE_STATION","names":[{"nameLocale":"en-US","name":"electric vehicle station"}]}]},"address":{"streetName":"Kilyos Caddesi","municipalitySubdivision":"Zekeriyaköy","municipality":"Istanbul","postalCode":"34450","countryCode":"TR","country":"Turkey","countryCodeISO3":"TUR","freeformAddress":"Kilyos Caddesi, 34450 Zekeriyaköy","localName":"Zekeriyaköy"},"position":{"lat":41.21381,"lon":29.03371},"viewport":{"topLeftPoint":{"lat":41.21471,"lon":29.03251},"btmRightPoint":{"lat":41.21291,"lon":29.03491}},"entryPoints":[{"type":"main","position":{"lat":41.21377,"lon":29.03396}}],"chargingPark":{"connectors":[{"connectorType":"IEC62196Type2Outlet","ratedPowerKW":22,"voltageV":400,"currentA":32,"currentType":"AC3"}]}},{"type":"POI","id":"792009006035351","score":97.763130188,"dist":2236.867483636422,"info":"search:ev:792009006035351","poi":{"name":"DMA Uskumruköy","phone":"+90 212 414 14 14","categorySet":[{"id":7309}],"categories":["electric vehicle station"],"classifications":[{"code":"ELECTRIC_VEHICLE_STATION","names":[{"nameLocale":"en-US","name":"electric vehicle station"}]}]},"address":{"municipalitySubdivision":"Zekeriyaköy","municipality":"Istanbul","postalCode":"34450","countryCode":"TR","country":"Turkey","countryCodeISO3":"TUR","freeformAddress":"34450 Uskumruköy","localName":"Uskumruköy"},"position":{"lat":41.22367,"lon":29.03703},"viewport":{"topLeftPoint":{"lat":41.22457,"lon":29.03583},"btmRightPoint":{"lat":41.22277,"lon":29.03823}},"entryPoints":[{"type":"main","position":{"lat":41.22378,"lon":29.03728}}],"chargingPark":{"connectors":[{"connectorType":"IEC62196Type2Outlet","ratedPowerKW":22,"voltageV":400,"currentA":32,"currentType":"AC3"}]}},{"type":"POI","id":"792009018615591","score":96.1757965088,"dist":3824.2057795963287,"info":"search:ev:792009018615591","poi":{"name":"ZES Zekeriyaköy Kilyos Caddesi","categorySet":[{"id":7309}],"categories":["electric vehicle station"],"classifications":[{"code":"ELECTRIC_VEHICLE_STATION","names":[{"nameLocale":"en-US","name":"electric vehicle station"}]}]},"address":{"streetName":"Kilyos Caddesi","municipalitySubdivision":"Sariyer","municipality":"Istanbul","postalCode":"34450","countryCode":"TR","country":"Turkey","countryCodeISO3":"TUR","freeformAddress":"Kilyos Caddesi, 34450 Zekeriyaköy","localName":"Zekeriyaköy"},"position":{"lat":41.19341,"lon":29.0351},"viewport":{"topLeftPoint":{"lat":41.19431,"lon":29.0339},"btmRightPoint":{"lat":41.19251,"lon":29.0363}},"entryPoints":[{"type":"main","position":{"lat":41.19335,"lon":29.03476}}],"chargingPark":{"connectors":[{"connectorType":"IEC62196Type2Outlet","ratedPowerKW":22,"voltageV":400,"currentA":32,"currentType":"AC3"}]}},{"type":"POI","id":"792009018483963","score":97.4527587891,"dist":2547.23737097551,"info":"search:ev:792009018483963","poi":{"name":"GERSAN Riva Riva Caddesi","categorySet":[{"id":7309}],"categories":["electric vehicle station"],"classifications":[{"code":"ELECTRIC_VEHICLE_STATION","names":[{"nameLocale":"en-US","name":"electric vehicle station"}]}]},"address":{"streetName":"Riva Caddesi","municipalitySubdivision":"Beykoz","municipality":"Istanbul","postalCode":"34829","countryCode":"TR","country":"Turkey","countryCodeISO3":"TUR","freeformAddress":"Riva Caddesi, 34829 Riva","localName":"Riva"},"position":{"lat":41.21852,"lon":29.21496},"viewport":{"topLeftPoint":{"lat":41.21942,"lon":29.21376},"btmRightPoint":{"lat":41.21762,"lon":29.21616}},"entryPoints":[{"type":"main","position":{"lat":41.21866,"lon":29.21431}}],"chargingPark":{"connectors":[{"connectorType":"IEC62196Type2Outlet","ratedPowerKW":22,"voltageV":400,"currentA":32,"currentType":"AC3"}]}},{"type":"POI","id":"792009018002861","score":99.2102890015,"dist":789.711058440668,"info":"search:ev:792009018002861","poi":{"name":"ZES İncivez Alaplı-Zonguldak Yolu","categorySet":[{"id":7309}],"categories":["electric vehicle station"],"classifications":[{"code":"ELECTRIC_VEHICLE_STATION","names":[{"nameLocale":"en-US","name":"electric vehicle station"}]}]},"address":{"streetNumber":"130","streetName":"Alaplı-Zonguldak Yolu","municipalitySubdivision":"İncivez","municipality":"Zonguldak Centre","postalCode":"67980","countryCode":"TR","country":"Turkey","countryCodeISO3":"TUR","freeformAddress":"Alaplı-Zonguldak Yolu 130, 67980 İncivez","localName":"İncivez"},"position":{"lat":41.45485,"lon":31.76381},"viewport":{"topLeftPoint":{"lat":41.45575,"lon":31.76261},"btmRightPoint":{"lat":41.45395,"lon":31.76501}},"entryPoints":[{"type":"main","position":{"lat":41.4544,"lon":31.76379}}],"chargingPark":{"connectors":[{"connectorType":"IEC62196Type2Outlet","ratedPowerKW":22,"voltageV":400,"currentA":32,"currentType":"AC3"}]}},{"type":"POI","id":"300009003499599","score":97.1508789063,"dist":2849.124698184045,"info":"search:ev:300009003499599","poi":{"name":"Αλεξανδρούπολη","categorySet":[{"id":7309}],"categories":["electric vehicle station"],"classifications":[{"code":"ELECTRIC_VEHICLE_STATION","names":[{"nameLocale":"en-US","name":"electric vehicle station"}]}]},"address":{"municipality":"Αλεξανδρούπολη","countrySecondarySubdivision":"Έβρος","countrySubdivision":"East Macedonia & Thrace","postalCode":"68132","countryCode":"GR","country":"Greece","countryCodeISO3":"GRC","freeformAddress":"68132 Αλεξανδρούπολη","localName":"Αλεξανδρούπολη"},"position":{"lat":40.85527,"lon":25.87944},"viewport":{"topLeftPoint":{"lat":40.85617,"lon":25.87825},"btmRightPoint":{"lat":40.85437,"lon":25.88063}},"entryPoints":[{"type":"main","position":{"lat":40.8554,"lon":25.87913}}],"chargingPark":{"connectors":[{"connectorType":"IEC62196Type2Outlet","ratedPowerKW":7.4,"voltageV":230,"currentA":32,"currentType":"AC1"}]}},{"type":"POI","id":"300009003893245","score":95.4670562744,"dist":4532.9415983699155,"info":"search:ev:300009003893245","poi":{"name":"Αλεξανδρούπολη","phone":"+389 75 357 777","categorySet":[{"id":7309}],"categories":["electric vehicle station"],"classifications":[{"code":"ELECTRIC_VEHICLE_STATION","names":[{"nameLocale":"en-US","name":"electric vehicle station"}]}]},"address":{"municipality":"Αλεξανδρούπολη","countrySecondarySubdivision":"Έβρος","countrySubdivision":"East Macedonia & Thrace","postalCode":"68150","countryCode":"GR","country":"Greece","countryCodeISO3":"GRC","freeformAddress":"68150 Αλεξανδρούπολη","localName":"Αλεξανδρούπολη"},"position":{"lat":40.85625,"lon":25.92361},"viewport":{"topLeftPoint":{"lat":40.85715,"lon":25.92242},"btmRightPoint":{"lat":40.85535,"lon":25.9248}},"entryPoints":[{"type":"main","position":{"lat":40.85648,"lon":25.92414}}],"chargingPark":{"connectors":[{"connectorType":"IEC62196Type2Outlet","ratedPowerKW":22,"voltageV":400,"currentA":32,"currentType":"AC3"}]}},{"type":"POI","id":"792009018002747","score":99.119644165,"dist":880.3567772372504,"info":"search:ev:792009018002747","poi":{"name":"ZES Yeni","categorySet":[{"id":7309}],"categories":["electric vehicle station"],"classifications":[{"code":"ELECTRIC_VEHICLE_STATION","names":[{"nameLocale":"en-US","name":"electric vehicle station"}]}]},"address":{"municipalitySubdivision":"Yeni","municipality":"Istanbul","postalCode":"34570","countryCode":"TR","country":"Turkey","countryCodeISO3":"TUR","freeformAddress":"34570 Yeni","localName":"Yeni"},"position":{"lat":41.07725,"lon":28.25125},"viewport":{"topLeftPoint":{"lat":41.07815,"lon":28.25006},"btmRightPoint":{"lat":41.07635,"lon":28.25244}},"entryPoints":[{"type":"main","position":{"lat":41.07729,"lon":28.25113}}],"chargingPark":{"connectors":[{"connectorType":"IEC62196Type2Outlet","ratedPowerKW":22,"voltageV":400,"currentA":32,"currentType":"AC3"}]}},{"type":"POI","id":"792009019290045","score":96.7725753784,"dist":3227.4263868600297,"info":"search:ev:792009019290045","poi":{"name":"ZES Cumhuriyet","categorySet":[{"id":7309}],"categories":["electric vehicle station"],"classifications":[{"code":"ELECTRIC_VEHICLE_STATION","names":[{"nameLocale":"en-US","name":"electric vehicle station"}]}]},"address":{"municipalitySubdivision":"Silivri","municipality":"Istanbul","postalCode":"34570","countryCode":"TR","country":"Turkey","countryCodeISO3":"TUR","freeformAddress":"34570 Cumhuriyet","localName":"Cumhuriyet"},"position":{"lat":41.07,"lon":28.28106},"viewport":{"topLeftPoint":{"lat":41.0709,"lon":28.27987},"btmRightPoint":{"lat":41.0691,"lon":28.28225}},"entryPoints":[{"type":"main","position":{"lat":41.06999,"lon":28.28109}}],"chargingPark":{"connectors":[{"connectorType":"IEC62196Type2Outlet","ratedPowerKW":22,"voltageV":400,"currentA":32,"currentType":"AC3"}]}},{"type":"POI","id":"792009019290014","score":97.9559402466,"dist":2044.062496702109,"info":"search:ev:792009019290014","poi":{"name":"ZES Ömerli Hakkı İleri Caddesi","categorySet":[{"id":7309}],"categories":["electric vehicle station"],"classifications":[{"code":"ELECTRIC_VEHICLE_STATION","names":[{"nameLocale":"en-US","name":"electric vehicle station"}]}]},"address":{"streetName":"Hakkı İleri Caddesi","municipalitySubdivision":"Arnavutkoy","municipality":"Istanbul","postalCode":"34555","countryCode":"TR","country":"Turkey","countryCodeISO3":"TUR","freeformAddress":"Hakkı İleri Caddesi, 34555 Ömerli","localName":"Ömerli"},"position":{"lat":41.13268,"lon":28.64086},"viewport":{"topLeftPoint":{"lat":41.13358,"lon":28.63967},"btmRightPoint":{"lat":41.13178,"lon":28.64205}},"entryPoints":[{"type":"main","position":{"lat":41.1327,"lon":28.64076}}],"chargingPark":{"connectors":[{"connectorType":"IEC62196Type2Outlet","ratedPowerKW":22,"voltageV":400,"currentA":32,"currentType":"AC3"}]}},{"type":"POI","id":"792009018730407","score":96.7188873291,"dist":3281.1114289433126,"info":"search:ev:792009018730407","poi":{"name":"GERSAN Bahçeşehir 2. Kisim","categorySet":[{"id":7309}],"categories":["electric vehicle station"],"classifications":[{"code":"ELECTRIC_VEHICLE_STATION","names":[{"nameLocale":"en-US","name":"electric vehicle station"}]}]},"address":{"municipalitySubdivision":"Bahçeşehir 2. Kisim","municipality":"Istanbul","postalCode":"34488","countryCode":"TR","country":"Turkey","countryCodeISO3":"TUR","freeformAddress":"34488 Bahçeşehir 2. Kisim","localName":"Bahçeşehir 2. Kisim"},"position":{"lat":41.09166,"lon":28.64655},"viewport":{"topLeftPoint":{"lat":41.09256,"lon":28.64536},"btmRightPoint":{"lat":41.09076,"lon":28.64774}},"entryPoints":[{"type":"main","position":{"lat":41.09156,"lon":28.64637}}],"chargingPark":{"connectors":[{"connectorType":"IEC62196Type2Outlet","ratedPowerKW":22,"voltageV":400,"currentA":32,"currentType":"AC3"}]}},{"type":"POI","id":"792009019166442","score":96.0791778564,"dist":3920.8217420417573,"info":"search:ev:792009019166442","poi":{"name":"GERSAN Bahçeşehir 2. Kisim Mercedes Bulvarı","categorySet":[{"id":7309}],"categories":["electric vehicle station"],"classifications":[{"code":"ELECTRIC_VEHICLE_STATION","names":[{"nameLocale":"en-US","name":"electric vehicle station"}]}]},"address":{"streetName":"Mercedes Bulvarı","municipalitySubdivision":"Bahçeşehir 2. Kisim","municipality":"Istanbul","postalCode":"34488","countryCode":"TR","country":"Turkey","countryCodeISO3":"TUR","freeformAddress":"Mercedes Bulvarı, 34488 Bahçeşehir 2. Kisim","localName":"Bahçeşehir 2. Kisim"},"position":{"lat":41.08693,"lon":28.65095},"viewport":{"topLeftPoint":{"lat":41.08783,"lon":28.64976},"btmRightPoint":{"lat":41.08603,"lon":28.65214}},"entryPoints":[{"type":"main","position":{"lat":41.08693,"lon":28.65094}}],"chargingPark":{"connectors":[{"connectorType":"IEC62196Type2Outlet","ratedPowerKW":22,"voltageV":400,"currentA":32,"currentType":"AC3"}]}},{"type":"POI","id":"792009018115883","score":96.0839767456,"dist":3916.023028838862,"info":"search:ev:792009018115883","poi":{"name":"GERSAN Kayabaşi Kayaşehir Bulvarı","categorySet":[{"id":7309}],"categories":["electric vehicle station"],"classifications":[{"code":"ELECTRIC_VEHICLE_STATION","names":[{"nameLocale":"en-US","name":"electric vehicle station"}]}]},"address":{"streetName":"Kayaşehir Bulvarı","municipalitySubdivision":"Basaksehir","municipality":"Istanbul","postalCode":"34494","countryCode":"TR","country":"Turkey","countryCodeISO3":"TUR","freeformAddress":"Kayaşehir Bulvarı, 34494 Kayabaşi","localName":"Kayabaşi"},"position":{"lat":41.12595,"lon":28.77152},"viewport":{"topLeftPoint":{"lat":41.12685,"lon":28.77033},"btmRightPoint":{"lat":41.12505,"lon":28.77271}},"entryPoints":[{"type":"main","position":{"lat":41.12589,"lon":28.77157}}],"chargingPark":{"connectors":[{"connectorType":"IEC62196Type2Outlet","ratedPowerKW":22,"voltageV":400,"currentA":32,"currentType":"AC3"}]}},{"type":"POI","id":"792009018875441","score":95.7441482544,"dist":4255.854974608627,"info":"search:ev:792009018875441","poi":{"name":"GERSAN Kayabaşi Kayaşehir Bulvarı","categorySet":[{"id":7309}],"categories":["electric vehicle station"],"classifications":[{"code":"ELECTRIC_VEHICLE_STATION","names":[{"nameLocale":"en-US","name":"electric vehicle station"}]}]},"address":{"streetName":"Kayaşehir Bulvarı","municipalitySubdivision":"Basaksehir","municipality":"Istanbul","postalCode":"34494","countryCode":"TR","country":"Turkey","countryCodeISO3":"TUR","freeformAddress":"Kayaşehir Bulvarı, 34494 Kayabaşi","localName":"Kayabaşi"},"position":{"lat":41.12181,"lon":28.76883},"viewport":{"topLeftPoint":{"lat":41.12271,"lon":28.76764},"btmRightPoint":{"lat":41.12091,"lon":28.77002}},"entryPoints":[{"type":"main","position":{"lat":41.12228,"lon":28.76796}}],"chargingPark":{"connectors":[{"connectorType":"IEC62196Type2Outlet","ratedPowerKW":22,"voltageV":400,"currentA":32,"currentType":"AC3"}]}},{"type":"POI","id":"792009018599435","score":95.5781555176,"dist":4421.847568110951,"info":"search:ev:792009018599435","poi":{"name":"GERSAN Kayabaşi Evliya Çelebi Caddesi","categorySet":[{"id":7309}],"categories":["electric vehicle station"],"classifications":[{"code":"ELECTRIC_VEHICLE_STATION","names":[{"nameLocale":"en-US","name":"electric vehicle station"}]}]},"address":{"streetName":"Evliya Çelebi Caddesi","municipalitySubdivision":"Basaksehir","municipality":"Istanbul","postalCode":"34494","countryCode":"TR","country":"Turkey","countryCodeISO3":"TUR","freeformAddress":"Evliya Çelebi Caddesi, 34494 Kayabaşi","localName":"Kayabaşi"},"position":{"lat":41.11532,"lon":28.77031},"viewport":{"topLeftPoint":{"lat":41.11622,"lon":28.76912},"btmRightPoint":{"lat":41.11442,"lon":28.7715}},"entryPoints":[{"type":"main","position":{"lat":41.11528,"lon":28.77038}}],"chargingPark":{"connectors":[{"connectorType":"IEC62196Type2Outlet","ratedPowerKW":22,"voltageV":400,"currentA":32,"currentType":"AC3"}]}},{"type":"POI","id":"792009018688078","score":95.536315918,"dist":4463.68684940288,"info":"search:ev:792009018688078","poi":{"name":"GERSAN Kayabaşi Kayaşehir Bulvarı","categorySet":[{"id":7309}],"categories":["electric vehicle station"],"classifications":[{"code":"ELECTRIC_VEHICLE_STATION","names":[{"nameLocale":"en-US","name":"electric vehicle station"}]}]},"address":{"streetName":"Kayaşehir Bulvarı","municipalitySubdivision":"Basaksehir","municipality":"Istanbul","postalCode":"34494","countryCode":"TR","country":"Turkey","countryCodeISO3":"TUR","freeformAddress":"Kayaşehir Bulvarı, 34494 Kayabaşi","localName":"Kayabaşi"},"position":{"lat":41.12041,"lon":28.76684},"viewport":{"topLeftPoint":{"lat":41.12131,"lon":28.76565},"btmRightPoint":{"lat":41.11951,"lon":28.76803}},"entryPoints":[{"type":"main","position":{"lat":41.12037,"lon":28.76665}}],"chargingPark":{"connectors":[{"connectorType":"IEC62196Type2Outlet","ratedPowerKW":22,"voltageV":400,"currentA":32,"currentType":"AC3"}]}},{"type":"POI","id":"792009018445029","score":95.518951416,"dist":4481.0453319899425,"info":"search:ev:792009018445029","poi":{"name":"GERSAN Kayabaşi Gazi Yaşargil Caddesi","categorySet":[{"id":7309}],"categories":["electric vehicle station"],"classifications":[{"code":"ELECTRIC_VEHICLE_STATION","names":[{"nameLocale":"en-US","name":"electric vehicle station"}]}]},"address":{"streetName":"Gazi Yaşargil Caddesi","municipalitySubdivision":"Basaksehir","municipality":"Istanbul","postalCode":"34494","countryCode":"TR","country":"Turkey","countryCodeISO3":"TUR","freeformAddress":"Gazi Yaşargil Caddesi, 34494 Kayabaşi","localName":"Kayabaşi"},"position":{"lat":41.11769,"lon":28.76803},"viewport":{"topLeftPoint":{"lat":41.11859,"lon":28.76684},"btmRightPoint":{"lat":41.11679,"lon":28.76922}},"entryPoints":[{"type":"main","position":{"lat":41.11768,"lon":28.76778}}],"chargingPark":{"connectors":[{"connectorType":"IEC62196Type2Outlet","ratedPowerKW":22,"voltageV":400,"currentA":32,"currentType":"AC3"}]}},{"type":"POI","id":"792009018002459","score":95.2703323364,"dist":4729.666488161241,"info":"search:ev:792009018002459","poi":{"name":"GERSAN Göktürk Merkez 2.Kayın Sokak","phone":"+90 216 593 00 50","categorySet":[{"id":7309}],"categories":["electric vehicle station"],"classifications":[{"code":"ELECTRIC_VEHICLE_STATION","names":[{"nameLocale":"en-US","name":"electric vehicle station"}]}]},"address":{"streetName":"2.Kayın Sokak","municipalitySubdivision":"Göktürk Merkez","municipality":"Istanbul","postalCode":"34077","countryCode":"TR","country":"Turkey","countryCodeISO3":"TUR","freeformAddress":"2.Kayın Sokak, 34077 Göktürk Merkez","localName":"Göktürk Merkez"},"position":{"lat":41.1789,"lon":28.88432},"viewport":{"topLeftPoint":{"lat":41.1798,"lon":28.88313},"btmRightPoint":{"lat":41.178,"lon":28.88551}},"entryPoints":[{"type":"main","position":{"lat":41.1791,"lon":28.88406}}],"chargingPark":{"connectors":[{"connectorType":"IEC62196Type2Outlet","ratedPowerKW":22,"voltageV":400,"currentA":32,"currentType":"AC3"}]}},{"type":"POI","id":"792009019290015","score":96.8313217163,"dist":3168.6802456886676,"info":"search:ev:792009019290015","poi":{"name":"ZES Bahçeköy Merkez Valide Sultan Caddesi","categorySet":[{"id":7309}],"categories":["electric vehicle station"],"classifications":[{"code":"ELECTRIC_VEHICLE_STATION","names":[{"nameLocale":"en-US","name":"electric vehicle station"}]}]},"address":{"streetName":"Valide Sultan Caddesi","municipalitySubdivision":"Bahçeköy Merkez","municipality":"Istanbul","postalCode":"34473","countryCode":"TR","country":"Turkey","countryCodeISO3":"TUR","freeformAddress":"Valide Sultan Caddesi, 34473 Bahçeköy Merkez","localName":"Bahçeköy Merkez"},"position":{"lat":41.17567,"lon":28.99055},"viewport":{"topLeftPoint":{"lat":41.17657,"lon":28.98936},"btmRightPoint":{"lat":41.17477,"lon":28.99174}},"entryPoints":[{"type":"main","position":{"lat":41.17565,"lon":28.9901}}],"chargingPark":{"connectors":[{"connectorType":"IEC62196Type2Outlet","ratedPowerKW":22,"voltageV":400,"currentA":32,"currentType":"AC3"}]}},{"type":"POI","id":"792009006035251","score":95.7633361816,"dist":4236.666007224547,"info":"search:ev:792009006035251","poi":{"name":"DMA İstinye Elif Sokak","phone":"+90 212 414 14 14","categorySet":[{"id":7309}],"categories":["electric vehicle station"],"classifications":[{"code":"ELECTRIC_VEHICLE_STATION","names":[{"nameLocale":"en-US","name":"electric vehicle station"}]}]},"address":{"streetName":"Elif Sokak","municipalitySubdivision":"İstinye","municipality":"Istanbul","postalCode":"34460","countryCode":"TR","country":"Turkey","countryCodeISO3":"TUR","freeformAddress":"Elif Sokak, 34460 İstinye","localName":"İstinye"},"position":{"lat":41.12219,"lon":29.04156},"viewport":{"topLeftPoint":{"lat":41.12309,"lon":29.04037},"btmRightPoint":{"lat":41.12129,"lon":29.04275}},"entryPoints":[{"type":"main","position":{"lat":41.12223,"lon":29.04162}}],"chargingPark":{"connectors":[{"connectorType":"IEC62196Type2Outlet","ratedPowerKW":22,"voltageV":400,"currentA":32,"currentType":"AC3"}]}},{"type":"POI","id":"792009018002454","score":95.2261047363,"dist":4773.896087146487,"info":"search:ev:792009018002454","poi":{"name":"Eşarj Poligon Sarıyer Caddesi","phone":"+90 850 433 7275","categorySet":[{"id":7309}],"categories":["electric vehicle station"],"classifications":[{"code":"ELECTRIC_VEHICLE_STATION","names":[{"nameLocale":"en-US","name":"electric vehicle station"}]}]},"address":{"streetNumber":"77","streetName":"Sarıyer Caddesi","municipalitySubdivision":"Poligon","municipality":"Istanbul","postalCode":"34460","countryCode":"TR","country":"Turkey","countryCodeISO3":"TUR","freeformAddress":"Sarıyer Caddesi 77, 34460 Poligon","localName":"Poligon"},"position":{"lat":41.11998,"lon":29.04773},"viewport":{"topLeftPoint":{"lat":41.12088,"lon":29.04654},"btmRightPoint":{"lat":41.11908,"lon":29.04892}},"entryPoints":[{"type":"main","position":{"lat":41.12018,"lon":29.04799}}],"chargingPark":{"connectors":[{"connectorType":"IEC62196Type2CCS","ratedPowerKW":25,"voltageV":400,"currentA":62,"currentType":"DC"},{"connectorType":"IEC62196Type2Outlet","ratedPowerKW":22,"voltageV":400,"currentA":32,"currentType":"AC3"}]}},{"type":"POI","id":"792009013028924","score":95.2059783936,"dist":4794.017614475128,"info":"search:ev:792009013028924","poi":{"name":"İstinye Balabandere Caddesi","phone":"+90 212 323 06 66","categorySet":[{"id":7309}],"categories":["electric vehicle station"],"classifications":[{"code":"ELECTRIC_VEHICLE_STATION","names":[{"nameLocale":"en-US","name":"electric vehicle station"}]}]},"address":{"streetNumber":"68","streetName":"Balabandere Caddesi","municipalitySubdivision":"İstinye","municipality":"Istanbul","postalCode":"34460","countryCode":"TR","country":"Turkey","countryCodeISO3":"TUR","freeformAddress":"Balabandere Caddesi 68, 34460 İstinye","localName":"İstinye"},"position":{"lat":41.12065,"lon":29.04891},"viewport":{"topLeftPoint":{"lat":41.12155,"lon":29.04772},"btmRightPoint":{"lat":41.11975,"lon":29.0501}},"entryPoints":[{"type":"main","position":{"lat":41.12083,"lon":29.04933}}],"chargingPark":{"connectors":[{"connectorType":"IEC62196Type2Outlet","ratedPowerKW":22,"voltageV":400,"currentA":32,"currentType":"AC3"}]}},{"type":"POI","id":"792009006035356","score":95.2011260986,"dist":4798.876284962859,"info":"search:ev:792009006035356","poi":{"name":"bd oto Ayazağa Kemerburgaz Caddesi","phone":"+90 216 339 39 00","categorySet":[{"id":7309}],"categories":["electric vehicle station"],"classifications":[{"code":"ELECTRIC_VEHICLE_STATION","names":[{"nameLocale":"en-US","name":"electric vehicle station"}]}]},"address":{"streetNumber":"41","streetName":"Kemerburgaz Caddesi","municipalitySubdivision":"Ayazağa","municipality":"Istanbul","postalCode":"34396","countryCode":"TR","country":"Turkey","countryCodeISO3":"TUR","freeformAddress":"Kemerburgaz Caddesi 41, 34396 Ayazağa","localName":"Ayazağa"},"position":{"lat":41.11826,"lon":28.96814},"viewport":{"topLeftPoint":{"lat":41.11916,"lon":28.96695},"btmRightPoint":{"lat":41.11736,"lon":28.96933}},"entryPoints":[{"type":"main","position":{"lat":41.11837,"lon":28.96789}}],"chargingPark":{"connectors":[{"connectorType":"IEC62196Type2Outlet","ratedPowerKW":22,"voltageV":400,"currentA":32,"currentType":"AC3"}]}},{"type":"POI","id":"792009015950548","score":95.7400054932,"dist":4259.997495865873,"info":"search:ev:792009015950548","poi":{"name":"Eşarj Tarabya Haydar Aliyev Caddesi","phone":"+90 850 433 7275","categorySet":[{"id":7309}],"categories":["electric vehicle station"],"classifications":[{"code":"ELECTRIC_VEHICLE_STATION","names":[{"nameLocale":"en-US","name":"electric vehicle station"}]}]},"address":{"streetNumber":"154","streetName":"Haydar Aliyev Caddesi","municipalitySubdivision":"Tarabya","municipality":"Istanbul","postalCode":"34457","countryCode":"TR","country":"Turkey","countryCodeISO3":"TUR","freeformAddress":"Haydar Aliyev Caddesi 154, 34457 Tarabya","localName":"Tarabya"},"position":{"lat":41.13988,"lon":29.05719},"viewport":{"topLeftPoint":{"lat":41.14078,"lon":29.056},"btmRightPoint":{"lat":41.13898,"lon":29.05838}},"entryPoints":[{"type":"main","position":{"lat":41.13999,"lon":29.05761}}],"chargingPark":{"connectors":[{"connectorType":"IEC62196Type2Outlet","ratedPowerKW":22,"voltageV":400,"currentA":32,"currentType":"AC3"}]}},{"type":"POI","id":"792009018738838","score":95.0514526367,"dist":4948.548933006222,"info":"search:ev:792009018738838","poi":{"name":"ZES İstasyon","categorySet":[{"id":7309}],"categories":["electric vehicle station"],"classifications":[{"code":"ELECTRIC_VEHICLE_STATION","names":[{"nameLocale":"en-US","name":"electric vehicle station"}]}]},"address":{"municipalitySubdivision":"İstasyon","municipality":"Zonguldak Centre","postalCode":"67900","countryCode":"TR","country":"Turkey","countryCodeISO3":"TUR","freeformAddress":"67900 İstasyon","localName":"İstasyon"},"position":{"lat":41.4087,"lon":32.08846},"viewport":{"topLeftPoint":{"lat":41.4096,"lon":32.08726},"btmRightPoint":{"lat":41.4078,"lon":32.08966}},"entryPoints":[{"type":"main","position":{"lat":41.40855,"lon":32.08859}}],"chargingPark":{"connectors":[{"connectorType":"IEC62196Type2Outlet","ratedPowerKW":22,"voltageV":400,"currentA":32,"currentType":"AC3"}]}},{"type":"POI","id":"792008000033836","score":99.513381958,"dist":486.61812058161263,"info":"search:ev:792008000033836","poi":{"name":"Eşarj İspat Cami Keşan-Malkara Yolu","phone":"+90 850 433 7275","categorySet":[{"id":7309}],"categories":["electric vehicle station"],"classifications":[{"code":"ELECTRIC_VEHICLE_STATION","names":[{"nameLocale":"en-US","name":"electric vehicle station"}]}]},"address":{"streetName":"Keşan-Malkara Yolu","municipalitySubdivision":"İspat Cami","municipality":"Edirne Centre","postalCode":"22900","countryCode":"TR","country":"Turkey","countryCodeISO3":"TUR","freeformAddress":"Keşan-Malkara Yolu, 22900 İspat Cami","localName":"İspat Cami"},"position":{"lat":40.87505,"lon":26.64221},"viewport":{"topLeftPoint":{"lat":40.87595,"lon":26.64102},"btmRightPoint":{"lat":40.87415,"lon":26.6434}},"entryPoints":[{"type":"main","position":{"lat":40.87504,"lon":26.64221}}],"chargingPark":{"connectors":[{"connectorType":"IEC62196Type2Outlet","ratedPowerKW":22,"voltageV":400,"currentA":32,"currentType":"AC3"},{"connectorType":"IEC62196Type2CCS","ratedPowerKW":50,"voltageV":400,"currentA":125,"currentType":"DC"},{"connectorType":"Chademo","ratedPowerKW":50,"voltageV":400,"currentA":125,"currentType":"DC"}]}},{"type":"POI","id":"792009019290044","score":98.1903915405,"dist":1809.6085973974834,"info":"search:ev:792009019290044","poi":{"name":"ZES Altınova Tekirdağ-Malkara Yolu","categorySet":[{"id":7309}],"categories":["electric vehicle station"],"classifications":[{"code":"ELECTRIC_VEHICLE_STATION","names":[{"nameLocale":"en-US","name":"electric vehicle station"}]}]},"address":{"streetName":"Tekirdağ-Malkara Yolu","municipalitySubdivision":"Altınova","municipality":"Tekirdag","postalCode":"59000","countryCode":"TR","country":"Turkey","countryCodeISO3":"TUR","freeformAddress":"Tekirdağ-Malkara Yolu, 59000 Altınova","localName":"Altınova"},"position":{"lat":40.94556,"lon":27.46645},"viewport":{"topLeftPoint":{"lat":40.94684,"lon":27.46476},"btmRightPoint":{"lat":40.94428,"lon":27.46814}},"entryPoints":[{"type":"main","position":{"lat":40.94684,"lon":27.46647}}],"chargingPark":{"connectors":[{"connectorType":"IEC62196Type2Outlet","ratedPowerKW":22,"voltageV":400,"currentA":32,"currentType":"AC3"}]}},{"type":"POI","id":"792009006035264","score":96.9825134277,"dist":3017.4892413842813,"info":"search:ev:792009006035264","poi":{"name":"Eşarj Mimar Sinan Merkez D-100. Karayolu","phone":"+90 212 456 04 57","categorySet":[{"id":7309}],"categories":["electric vehicle station"],"classifications":[{"code":"ELECTRIC_VEHICLE_STATION","names":[{"nameLocale":"en-US","name":"electric vehicle station"}]}]},"address":{"streetNumber":"77","streetName":"D-100. Karayolu","municipalitySubdivision":"Mimar Sinan Merkez","municipality":"Istanbul","postalCode":"34535","countryCode":"TR","country":"Turkey","countryCodeISO3":"TUR","freeformAddress":"D-100. Karayolu 77, 34535 Mimar Sinan Merkez","localName":"Mimar Sinan Merkez"},"position":{"lat":41.01442,"lon":28.54967},"viewport":{"topLeftPoint":{"lat":41.01532,"lon":28.54848},"btmRightPoint":{"lat":41.01352,"lon":28.55086}},"entryPoints":[{"type":"main","position":{"lat":41.01479,"lon":28.54979}}],"chargingPark":{"connectors":[{"connectorType":"IEC62196Type2Outlet","ratedPowerKW":3.7,"voltageV":230,"currentA":16,"currentType":"AC1"}]}},{"type":"POI","id":"792009019046940","score":97.2385025024,"dist":2761.4969409914725,"info":"search:ev:792009019046940","poi":{"name":"GERSAN Yeşilkent Bahçeşehir Yanyol Caddesi","categorySet":[{"id":7309}],"categories":["electric vehicle station"],"classifications":[{"code":"ELECTRIC_VEHICLE_STATION","names":[{"nameLocale":"en-US","name":"electric vehicle station"}]}]},"address":{"streetName":"Bahçeşehir Yanyol Caddesi","municipalitySubdivision":"Avcilar","municipality":"Istanbul","postalCode":"34325","countryCode":"TR","country":"Turkey","countryCodeISO3":"TUR","freeformAddress":"Bahçeşehir Yanyol Caddesi, 34325 Yeşilkent","localName":"Yeşilkent"},"position":{"lat":41.05449,"lon":28.68629},"viewport":{"topLeftPoint":{"lat":41.05539,"lon":28.6851},"btmRightPoint":{"lat":41.05359,"lon":28.68748}},"entryPoints":[{"type":"main","position":{"lat":41.05515,"lon":28.68583}}],"chargingPark":{"connectors":[{"connectorType":"IEC62196Type2Outlet","ratedPowerKW":22,"voltageV":400,"currentA":32,"currentType":"AC3"}]}},{"type":"POI","id":"792008000033867","score":95.9929351807,"dist":4007.061244855482,"info":"search:ev:792008000033867","poi":{"name":"Eşarj Selahaddin Eyyubi Erzurum Kongre Caddesi","phone":"+90 850 433 7275","categorySet":[{"id":7309}],"categories":["electric vehicle station"],"classifications":[{"code":"ELECTRIC_VEHICLE_STATION","names":[{"nameLocale":"en-US","name":"electric vehicle station"}]}]},"address":{"streetNumber":"6","streetName":"Erzurum Kongre Caddesi","municipalitySubdivision":"Selahaddin Eyyubi","municipality":"Istanbul","postalCode":"34517","countryCode":"TR","country":"Turkey","countryCodeISO3":"TUR","freeformAddress":"Erzurum Kongre Caddesi 6, 34517 Selahaddin Eyyubi","localName":"Selahaddin Eyyubi"},"position":{"lat":41.04945,"lon":28.67166},"viewport":{"topLeftPoint":{"lat":41.05035,"lon":28.67047},"btmRightPoint":{"lat":41.04855,"lon":28.67285}},"entryPoints":[{"type":"main","position":{"lat":41.04928,"lon":28.67192}}],"chargingPark":{"connectors":[{"connectorType":"IEC62196Type2Outlet","ratedPowerKW":22,"voltageV":400,"currentA":32,"currentType":"AC3"}]}},{"type":"POI","id":"792009018002734","score":95.5969009399,"dist":4403.100858702408,"info":"search:ev:792009018002734","poi":{"name":"Eşarj Koza","phone":"+90 850 433 7275","categorySet":[{"id":7309}],"categories":["electric vehicle station"],"classifications":[{"code":"ELECTRIC_VEHICLE_STATION","names":[{"nameLocale":"en-US","name":"electric vehicle station"}]}]},"address":{"municipalitySubdivision":"Koza","municipality":"Istanbul","postalCode":"34538","countryCode":"TR","country":"Turkey","countryCodeISO3":"TUR","freeformAddress":"34538 Koza","localName":"Koza"},"position":{"lat":41.05542,"lon":28.66675},"viewport":{"topLeftPoint":{"lat":41.05632,"lon":28.66556},"btmRightPoint":{"lat":41.05452,"lon":28.66794}},"entryPoints":[{"type":"main","position":{"lat":41.05537,"lon":28.66665}}],"chargingPark":{"connectors":[{"connectorType":"Chademo","ratedPowerKW":50,"voltageV":400,"currentA":125,"currentType":"DC"},{"connectorType":"IEC62196Type2CCS","ratedPowerKW":50,"voltageV":400,"currentA":125,"currentType":"DC"},{"connectorType":"IEC62196Type2Outlet","ratedPowerKW":22,"voltageV":400,"currentA":32,"currentType":"AC3"}]}},{"type":"POI","id":"792008000022306","score":95.5969009399,"dist":4403.100858702408,"info":"search:ev:792008000022306","poi":{"name":"Eşarj Koza 1655. Sokak","phone":"+90 850 433 7275","categorySet":[{"id":7309}],"categories":["electric vehicle station"],"classifications":[{"code":"ELECTRIC_VEHICLE_STATION","names":[{"nameLocale":"en-US","name":"electric vehicle station"}]}]},"address":{"streetNumber":"6","streetName":"1655. Sokak","municipalitySubdivision":"Koza","municipality":"Istanbul","postalCode":"34538","countryCode":"TR","country":"Turkey","countryCodeISO3":"TUR","freeformAddress":"1655. Sokak 6, 34538 Koza","localName":"Koza"},"position":{"lat":41.05542,"lon":28.66675},"viewport":{"topLeftPoint":{"lat":41.05632,"lon":28.66556},"btmRightPoint":{"lat":41.05452,"lon":28.66794}},"entryPoints":[{"type":"main","position":{"lat":41.05487,"lon":28.6678}}],"chargingPark":{"connectors":[{"connectorType":"Chademo","ratedPowerKW":50,"voltageV":400,"currentA":125,"currentType":"DC"},{"connectorType":"IEC62196Type2Outlet","ratedPowerKW":22.2,"voltageV":400,"currentA":32,"currentType":"AC3"},{"connectorType":"IEC62196Type2CCS","ratedPowerKW":50,"voltageV":400,"currentA":125,"currentType":"DC"}]}},{"type":"POI","id":"792009018204186","score":99.4947509766,"dist":505.2480069607884,"info":"search:ev:792009018204186","poi":{"name":"ZES Mehmet Akif İnönü Caddesi","categorySet":[{"id":7309}],"categories":["electric vehicle station"],"classifications":[{"code":"ELECTRIC_VEHICLE_STATION","names":[{"nameLocale":"en-US","name":"electric vehicle station"}]}]},"address":{"streetName":"İnönü Caddesi","municipalitySubdivision":"Kucukcekmece","municipality":"Istanbul","postalCode":"34307","countryCode":"TR","country":"Turkey","countryCodeISO3":"TUR","freeformAddress":"İnönü Caddesi, 34307 Mehmet Akif","localName":"Mehmet Akif"},"position":{"lat":41.06026,"lon":28.80814},"viewport":{"topLeftPoint":{"lat":41.06116,"lon":28.80695},"btmRightPoint":{"lat":41.05936,"lon":28.80933}},"entryPoints":[{"type":"main","position":{"lat":41.06026,"lon":28.80802}}],"chargingPark":{"connectors":[{"connectorType":"IEC62196Type2Outlet","ratedPowerKW":22,"voltageV":400,"currentA":32,"currentType":"AC3"}]}},{"type":"POI","id":"792009006035374","score":98.1359634399,"dist":1864.0352417633949,"info":"search:ev:792009006035374","poi":{"name":"DMA Ziya Gökalp Güngören-Bağcılar Sanayi Sitesi Yolu","phone":"+90 212 414 14 14","categorySet":[{"id":7309}],"categories":["electric vehicle station"],"classifications":[{"code":"ELECTRIC_VEHICLE_STATION","names":[{"nameLocale":"en-US","name":"electric vehicle station"}]}]},"address":{"streetName":"Güngören-Bağcılar Sanayi Sitesi Yolu","municipalitySubdivision":"Basaksehir","municipality":"Istanbul","postalCode":"34490","countryCode":"TR","country":"Turkey","countryCodeISO3":"TUR","freeformAddress":"Güngören-Bağcılar Sanayi Sitesi Yolu, 34490 Ziya Gökalp","localName":"Ziya Gökalp"},"position":{"lat":41.07736,"lon":28.80726},"viewport":{"topLeftPoint":{"lat":41.07826,"lon":28.80607},"btmRightPoint":{"lat":41.07646,"lon":28.80845}},"entryPoints":[{"type":"main","position":{"lat":41.07739,"lon":28.80735}}],"chargingPark":{"connectors":[{"connectorType":"IEC62196Type2Outlet","ratedPowerKW":7.4,"voltageV":230,"currentA":32,"currentType":"AC1"}]}},{"type":"POI","id":"792009019290025","score":96.770401001,"dist":3229.599473203705,"info":"search:ev:792009019290025","poi":{"name":"GERSAN Ziya Gökalp Ağaoğlu My World Europe Yolu","categorySet":[{"id":7309}],"categories":["electric vehicle station"],"classifications":[{"code":"ELECTRIC_VEHICLE_STATION","names":[{"nameLocale":"en-US","name":"electric vehicle station"}]}]},"address":{"streetName":"Ağaoğlu My World Europe Yolu","municipalitySubdivision":"Basaksehir","municipality":"Istanbul","postalCode":"34490","countryCode":"TR","country":"Turkey","countryCodeISO3":"TUR","freeformAddress":"Ağaoğlu My World Europe Yolu, 34490 Ziya Gökalp","localName":"Ziya Gökalp"},"position":{"lat":41.06591,"lon":28.77593},"viewport":{"topLeftPoint":{"lat":41.06681,"lon":28.77474},"btmRightPoint":{"lat":41.06501,"lon":28.77712}},"entryPoints":[{"type":"main","position":{"lat":41.066,"lon":28.77601}}],"chargingPark":{"connectors":[{"connectorType":"IEC62196Type2Outlet","ratedPowerKW":22,"voltageV":400,"currentA":32,"currentType":"AC3"}]}},{"type":"POI","id":"792009006035248","score":96.1319351196,"dist":3868.067779748897,"info":"search:ev:792009006035248","poi":{"name":"DMA Başak Abdül Hamit Han Caddesi","phone":"+90 212 414 14 14","categorySet":[{"id":7309}],"categories":["electric vehicle station"],"classifications":[{"code":"ELECTRIC_VEHICLE_STATION","names":[{"nameLocale":"en-US","name":"electric vehicle station"}]}]},"address":{"streetName":"Abdül Hamit Han Caddesi","municipalitySubdivision":"Basaksehir","municipality":"Istanbul","postalCode":"34480","countryCode":"TR","country":"Turkey","countryCodeISO3":"TUR","freeformAddress":"Abdül Hamit Han Caddesi, 34480 Başak","localName":"Başak"},"position":{"lat":41.09524,"lon":28.8034},"viewport":{"topLeftPoint":{"lat":41.09614,"lon":28.80221},"btmRightPoint":{"lat":41.09434,"lon":28.80459}},"entryPoints":[{"type":"main","position":{"lat":41.09525,"lon":28.80351}}],"chargingPark":{"connectors":[{"connectorType":"IEC62196Type2Outlet","ratedPowerKW":22,"voltageV":400,"currentA":32,"currentType":"AC3"}]}},{"type":"POI","id":"792009006035258","score":96.0556335449,"dist":3944.3636069346826,"info":"search:ev:792009006035258","poi":{"name":"bd oto Başak 13. Cadde","phone":"+90 216 339 39 00","categorySet":[{"id":7309}],"categories":["electric vehicle station"],"classifications":[{"code":"ELECTRIC_VEHICLE_STATION","names":[{"nameLocale":"en-US","name":"electric vehicle station"}]}]},"address":{"streetNumber":"34","streetName":"13. Cadde","municipalitySubdivision":"Basaksehir","municipality":"Istanbul","postalCode":"34480","countryCode":"TR","country":"Turkey","countryCodeISO3":"TUR","freeformAddress":"13. Cadde 34, 34480 Başak","localName":"Başak"},"position":{"lat":41.09523,"lon":28.79991},"viewport":{"topLeftPoint":{"lat":41.09613,"lon":28.79872},"btmRightPoint":{"lat":41.09433,"lon":28.8011}},"entryPoints":[{"type":"main","position":{"lat":41.09575,"lon":28.79989}}],"chargingPark":{"connectors":[{"connectorType":"IEC62196Type2Outlet","ratedPowerKW":22,"voltageV":400,"currentA":32,"currentType":"AC3"}]}},{"type":"POI","id":"792009019077412","score":96.0325164795,"dist":3967.484286272965,"info":"search:ev:792009019077412","poi":{"name":"GERSAN Başak 13. Cadde","categorySet":[{"id":7309}],"categories":["electric vehicle station"],"classifications":[{"code":"ELECTRIC_VEHICLE_STATION","names":[{"nameLocale":"en-US","name":"electric vehicle station"}]}]},"address":{"streetName":"13. Cadde","municipalitySubdivision":"Basaksehir","municipality":"Istanbul","postalCode":"34480","countryCode":"TR","country":"Turkey","countryCodeISO3":"TUR","freeformAddress":"13. Cadde, 34480 Başak","localName":"Başak"},"position":{"lat":41.09571,"lon":28.80108},"viewport":{"topLeftPoint":{"lat":41.09661,"lon":28.79989},"btmRightPoint":{"lat":41.09481,"lon":28.80227}},"entryPoints":[{"type":"main","position":{"lat":41.09587,"lon":28.80105}}],"chargingPark":{"connectors":[{"connectorType":"IEC62196Type2Outlet","ratedPowerKW":22,"voltageV":400,"currentA":32,"currentType":"AC3"}]}},{"type":"POI","id":"792009018076607","score":95.2101821899,"dist":4789.815661743054,"info":"search:ev:792009018076607","poi":{"name":"GERSAN Atakent 219. Sokak","categorySet":[{"id":7309}],"categories":["electric vehicle station"],"classifications":[{"code":"ELECTRIC_VEHICLE_STATION","names":[{"nameLocale":"en-US","name":"electric vehicle station"}]}]},"address":{"streetName":"219. Sokak","municipalitySubdivision":"Kucukcekmece","municipality":"Istanbul","postalCode":"34307","countryCode":"TR","country":"Turkey","countryCodeISO3":"TUR","freeformAddress":"219. Sokak, 34307 Atakent","localName":"Atakent"},"position":{"lat":41.04003,"lon":28.76437},"viewport":{"topLeftPoint":{"lat":41.04093,"lon":28.76318},"btmRightPoint":{"lat":41.03913,"lon":28.76556}},"entryPoints":[{"type":"main","position":{"lat":41.03983,"lon":28.76387}}],"chargingPark":{"connectors":[{"connectorType":"IEC62196Type2Outlet","ratedPowerKW":22,"voltageV":400,"currentA":32,"currentType":"AC3"}]}},{"type":"POI","id":"792009018572155","score":95.1999588013,"dist":4800.038705098061,"info":"search:ev:792009018572155","poi":{"name":"GERSAN Başakşehir Özçelik Sokak","categorySet":[{"id":7309}],"categories":["electric vehicle station"],"classifications":[{"code":"ELECTRIC_VEHICLE_STATION","names":[{"nameLocale":"en-US","name":"electric vehicle station"}]}]},"address":{"streetName":"Özçelik Sokak","municipalitySubdivision":"Basaksehir","municipality":"Istanbul","postalCode":"34480","countryCode":"TR","country":"Turkey","countryCodeISO3":"TUR","freeformAddress":"Özçelik Sokak, 34480 Başakşehir","localName":"Başakşehir"},"position":{"lat":41.09966,"lon":28.78751},"viewport":{"topLeftPoint":{"lat":41.10056,"lon":28.78632},"btmRightPoint":{"lat":41.09876,"lon":28.7887}},"entryPoints":[{"type":"main","position":{"lat":41.10005,"lon":28.7875}}],"chargingPark":{"connectors":[{"connectorType":"IEC62196Type2Outlet","ratedPowerKW":22,"voltageV":400,"currentA":32,"currentType":"AC3"}]}},{"type":"POI","id":"792009018002709","score":98.7462921143,"dist":1253.7079603958236,"info":"search:ev:792009018002709","poi":{"name":"Eşarj Yeni Mahalle Cebeci Caddesi","phone":"+90 850 433 7275","categorySet":[{"id":7309}],"categories":["electric vehicle station"],"classifications":[{"code":"ELECTRIC_VEHICLE_STATION","names":[{"nameLocale":"en-US","name":"electric vehicle station"}]}]},"address":{"streetName":"Cebeci Caddesi","municipalitySubdivision":"Gaziosmanpasa","municipality":"Istanbul","postalCode":"34250","countryCode":"TR","country":"Turkey","countryCodeISO3":"TUR","freeformAddress":"Cebeci Caddesi, 34250 Yeni Mahalle","localName":"Yeni Mahalle"},"position":{"lat":41.07815,"lon":28.89916},"viewport":{"topLeftPoint":{"lat":41.07905,"lon":28.89797},"btmRightPoint":{"lat":41.07725,"lon":28.90035}},"entryPoints":[{"type":"main","position":{"lat":41.07792,"lon":28.89904}}],"chargingPark":{"connectors":[{"connectorType":"IEC62196Type2Outlet","ratedPowerKW":22,"voltageV":400,"currentA":32,"currentType":"AC3"}]}},{"type":"POI","id":"792009019132856","score":97.9755477905,"dist":2024.4520626501994,"info":"search:ev:792009019132856","poi":{"name":"GERSAN Mevlana 885. Sokak","categorySet":[{"id":7309}],"categories":["electric vehicle station"],"classifications":[{"code":"ELECTRIC_VEHICLE_STATION","names":[{"nameLocale":"en-US","name":"electric vehicle station"}]}]},"address":{"streetNumber":"3","streetName":"885. Sokak","municipalitySubdivision":"Mevlana","municipality":"Istanbul","postalCode":"34255","countryCode":"TR","country":"Turkey","countryCodeISO3":"TUR","freeformAddress":"885. Sokak 3, 34255 Mevlana","localName":"Mevlana"},"position":{"lat":41.08773,"lon":28.90888},"viewport":{"topLeftPoint":{"lat":41.08863,"lon":28.90769},"btmRightPoint":{"lat":41.08683,"lon":28.91007}},"entryPoints":[{"type":"main","position":{"lat":41.08705,"lon":28.90938}}],"chargingPark":{"connectors":[{"connectorType":"IEC62196Type2Outlet","ratedPowerKW":22,"voltageV":400,"currentA":32,"currentType":"AC3"}]}},{"type":"POI","id":"792009018033931","score":97.5316619873,"dist":2468.3348665422945,"info":"search:ev:792009018033931","poi":{"name":"GERSAN Karayollari Abdi İpekçi Caddesi","categorySet":[{"id":7309}],"categories":["electric vehicle station"],"classifications":[{"code":"ELECTRIC_VEHICLE_STATION","names":[{"nameLocale":"en-US","name":"electric vehicle station"}]}]},"address":{"streetName":"Abdi İpekçi Caddesi","municipalitySubdivision":"Karayolları","municipality":"Istanbul","postalCode":"34255","countryCode":"TR","country":"Turkey","countryCodeISO3":"TUR","freeformAddress":"Abdi İpekçi Caddesi, 34255 Karayollari","localName":"Karayollari"},"position":{"lat":41.08994,"lon":28.89723},"viewport":{"topLeftPoint":{"lat":41.09084,"lon":28.89604},"btmRightPoint":{"lat":41.08904,"lon":28.89842}},"entryPoints":[{"type":"main","position":{"lat":41.08983,"lon":28.89703}}],"chargingPark":{"connectors":[{"connectorType":"IEC62196Type2Outlet","ratedPowerKW":22,"voltageV":400,"currentA":32,"currentType":"AC3"}]}},{"type":"POI","id":"792009006035328","score":97.1893997192,"dist":2810.6031730634727,"info":"search:ev:792009006035328","poi":{"name":"bd oto Kocatepe","phone":"+90 216 339 39 00","categorySet":[{"id":7309}],"categories":["electric vehicle station"],"classifications":[{"code":"ELECTRIC_VEHICLE_STATION","names":[{"nameLocale":"en-US","name":"electric vehicle station"}]}]},"address":{"municipalitySubdivision":"Bayrampasa","municipality":"Istanbul","postalCode":"34045","countryCode":"TR","country":"Turkey","countryCodeISO3":"TUR","freeformAddress":"34045 Kocatepe","localName":"Kocatepe"},"position":{"lat":41.04565,"lon":28.89778},"viewport":{"topLeftPoint":{"lat":41.04655,"lon":28.89659},"btmRightPoint":{"lat":41.04475,"lon":28.89897}},"entryPoints":[{"type":"main","position":{"lat":41.04536,"lon":28.89771}}],"chargingPark":{"connectors":[{"connectorType":"IEC62196Type2Outlet","ratedPowerKW":3.7,"voltageV":230,"currentA":16,"currentType":"AC1"}]}},{"type":"POI","id":"792009019290093","score":97.1620254517,"dist":2837.9746377593538,"info":"search:ev:792009019290093","poi":{"name":"ZES Yenidoğan Erciyes Sokak","categorySet":[{"id":7309}],"categories":["electric vehicle station"],"classifications":[{"code":"ELECTRIC_VEHICLE_STATION","names":[{"nameLocale":"en-US","name":"electric vehicle station"}]}]},"address":{"streetName":"Erciyes Sokak","municipalitySubdivision":"Bayrampasa","municipality":"Istanbul","postalCode":"34040","countryCode":"TR","country":"Turkey","countryCodeISO3":"TUR","freeformAddress":"Erciyes Sokak, 34040 Yenidoğan","localName":"Yenidoğan"},"position":{"lat":41.04421,"lon":28.91311},"viewport":{"topLeftPoint":{"lat":41.04511,"lon":28.91192},"btmRightPoint":{"lat":41.04331,"lon":28.9143}},"entryPoints":[{"type":"main","position":{"lat":41.04426,"lon":28.91305}}],"chargingPark":{"connectors":[{"connectorType":"IEC62196Type2Outlet","ratedPowerKW":22,"voltageV":400,"currentA":32,"currentType":"AC3"}]}},{"type":"POI","id":"792009006035330","score":96.909538269,"dist":3090.464617068552,"info":"search:ev:792009006035330","poi":{"name":"Eşarj Cumhuriyet Dersaadet Caddesi","phone":"+90 212 456 04 57","categorySet":[{"id":7309}],"categories":["electric vehicle station"],"classifications":[{"code":"ELECTRIC_VEHICLE_STATION","names":[{"nameLocale":"en-US","name":"electric vehicle station"}]}]},"address":{"streetNumber":"2","streetName":"Dersaadet Caddesi","municipalitySubdivision":"Sultangazi","municipality":"Istanbul","postalCode":"34265","countryCode":"TR","country":"Turkey","countryCodeISO3":"TUR","freeformAddress":"Dersaadet Caddesi 2, 34265 Cumhuriyet","localName":"Cumhuriyet"},"position":{"lat":41.09077,"lon":28.88502},"viewport":{"topLeftPoint":{"lat":41.09167,"lon":28.88383},"btmRightPoint":{"lat":41.08987,"lon":28.88621}},"entryPoints":[{"type":"main","position":{"lat":41.091,"lon":28.88484}}],"chargingPark":{"connectors":[{"connectorType":"IEC62196Type2Outlet","ratedPowerKW":22,"voltageV":400,"currentA":32,"currentType":"AC3"}]}},{"type":"POI","id":"792009018002755","score":96.8354034424,"dist":3164.5980954594124,"info":"search:ev:792009018002755","poi":{"name":"ZES Merkez Silahtarağa Caddesi","categorySet":[{"id":7309}],"categories":["electric vehicle station"],"classifications":[{"code":"ELECTRIC_VEHICLE_STATION","names":[{"nameLocale":"en-US","name":"electric vehicle station"}]}]},"address":{"streetName":"Silahtarağa Caddesi","municipalitySubdivision":"Eyup","municipality":"Istanbul","postalCode":"34050","countryCode":"TR","country":"Turkey","countryCodeISO3":"TUR","freeformAddress":"Silahtarağa Caddesi, 34050 Merkez","localName":"Merkez"},"position":{"lat":41.05894,"lon":28.94383},"viewport":{"topLeftPoint":{"lat":41.05984,"lon":28.94264},"btmRightPoint":{"lat":41.05804,"lon":28.94502}},"entryPoints":[{"type":"main","position":{"lat":41.05889,"lon":28.94399}}],"chargingPark":{"connectors":[{"connectorType":"IEC62196Type2Outlet","ratedPowerKW":22,"voltageV":400,"currentA":32,"currentType":"AC3"}]}},{"type":"POI","id":"792009018002660","score":96.6332168579,"dist":3366.7850887999894,"info":"search:ev:792009018002660","poi":{"name":"ZES Güzeltepe Finanskent Konutları Yolu","categorySet":[{"id":7309}],"categories":["electric vehicle station"],"classifications":[{"code":"ELECTRIC_VEHICLE_STATION","names":[{"nameLocale":"en-US","name":"electric vehicle station"}]}]},"address":{"streetName":"Finanskent Konutları Yolu","municipalitySubdivision":"Eyup","municipality":"Istanbul","postalCode":"34060","countryCode":"TR","country":"Turkey","countryCodeISO3":"TUR","freeformAddress":"Finanskent Konutları Yolu, 34060 Güzeltepe","localName":"Güzeltepe"},"position":{"lat":41.0908,"lon":28.93737},"viewport":{"topLeftPoint":{"lat":41.0917,"lon":28.93618},"btmRightPoint":{"lat":41.0899,"lon":28.93856}},"entryPoints":[{"type":"main","position":{"lat":41.0905,"lon":28.93749}}],"chargingPark":{"connectors":[{"connectorType":"IEC62196Type2Outlet","ratedPowerKW":22,"voltageV":400,"currentA":32,"currentType":"AC3"}]}},{"type":"POI","id":"792009019283349","score":96.0084609985,"dist":3991.5384517680072,"info":"search:ev:792009019283349","poi":{"name":"GERSAN Kazim Karabekir 1043. Sokak","categorySet":[{"id":7309}],"categories":["electric vehicle station"],"classifications":[{"code":"ELECTRIC_VEHICLE_STATION","names":[{"nameLocale":"en-US","name":"electric vehicle station"}]}]},"address":{"streetName":"1043. Sokak","municipalitySubdivision":"Kazım Karabekir","municipality":"Istanbul","postalCode":"34225","countryCode":"TR","country":"Turkey","countryCodeISO3":"TUR","freeformAddress":"1043. Sokak, 34225 Kazim Karabekir","localName":"Kazim Karabekir"},"position":{"lat":41.04464,"lon":28.87448},"viewport":{"topLeftPoint":{"lat":41.04554,"lon":28.87329},"btmRightPoint":{"lat":41.04374,"lon":28.87567}},"entryPoints":[{"type":"main","position":{"lat":41.04455,"lon":28.87444}}],"chargingPark":{"connectors":[{"connectorType":"IEC62196Type2Outlet","ratedPowerKW":22,"voltageV":400,"currentA":32,"currentType":"AC3"}]}},{"type":"POI","id":"792009019004137","score":99.4887008667,"dist":511.29914171258525,"info":"search:ev:792009019004137","poi":{"name":"GERSAN Gülbahar Galata Deresi Caddesi","categorySet":[{"id":7309}],"categories":["electric vehicle station"],"classifications":[{"code":"ELECTRIC_VEHICLE_STATION","names":[{"nameLocale":"en-US","name":"electric vehicle station"}]}]},"address":{"streetName":"Galata Deresi Caddesi","municipalitySubdivision":"Gülbahar","municipality":"Istanbul","postalCode":"34394","countryCode":"TR","country":"Turkey","countryCodeISO3":"TUR","freeformAddress":"Galata Deresi Caddesi, 34394 Gülbahar","localName":"Gülbahar"},"position":{"lat":41.07594,"lon":28.99796},"viewport":{"topLeftPoint":{"lat":41.07684,"lon":28.99677},"btmRightPoint":{"lat":41.07504,"lon":28.99915}},"entryPoints":[{"type":"main","position":{"lat":41.07612,"lon":28.99801}}],"chargingPark":{"connectors":[{"connectorType":"IEC62196Type2Outlet","ratedPowerKW":22,"voltageV":400,"currentA":32,"currentType":"AC3"}]}},{"type":"POI","id":"792009018002477","score":99.3523254395,"dist":647.676779950682,"info":"search:ev:792009018002477","poi":{"name":"Eşarj Esentepe Büyükdere Caddesi","phone":"+90 850 433 7275","categorySet":[{"id":7309}],"categories":["electric vehicle station"],"classifications":[{"code":"ELECTRIC_VEHICLE_STATION","names":[{"nameLocale":"en-US","name":"electric vehicle station"}]}]},"address":{"streetNumber":"185","streetName":"Büyükdere Caddesi","municipalitySubdivision":"Esentepe","municipality":"Istanbul","postalCode":"34394","countryCode":"TR","country":"Turkey","countryCodeISO3":"TUR","freeformAddress":"Büyükdere Caddesi 185, 34394 Esentepe","localName":"Esentepe"},"position":{"lat":41.07818,"lon":29.01131},"viewport":{"topLeftPoint":{"lat":41.07908,"lon":29.01012},"btmRightPoint":{"lat":41.07728,"lon":29.0125}},"entryPoints":[{"type":"main","position":{"lat":41.07874,"lon":29.01216}}],"chargingPark":{"connectors":[{"connectorType":"Chademo","ratedPowerKW":50,"voltageV":400,"currentA":125,"currentType":"DC"},{"connectorType":"IEC62196Type2CCS","ratedPowerKW":50,"voltageV":400,"currentA":125,"currentType":"DC"},{"connectorType":"IEC62196Type2Outlet","ratedPowerKW":22,"voltageV":400,"currentA":32,"currentType":"AC3"}]}},{"type":"POI","id":"792009018002442","score":99.345375061,"dist":654.6273247031872,"info":"search:ev:792009018002442","poi":{"name":"Eşarj Esentepe Büyükdere Caddesi","phone":"+90 850 433 7275","categorySet":[{"id":7309}],"categories":["electric vehicle station"],"classifications":[{"code":"ELECTRIC_VEHICLE_STATION","names":[{"nameLocale":"en-US","name":"electric vehicle station"}]}]},"address":{"streetNumber":"209","streetName":"Büyükdere Caddesi","municipalitySubdivision":"Esentepe","municipality":"Istanbul","postalCode":"34394","countryCode":"TR","country":"Turkey","countryCodeISO3":"TUR","freeformAddress":"Büyükdere Caddesi 209, 34394 Esentepe","localName":"Esentepe"},"position":{"lat":41.08193,"lon":29.009},"viewport":{"topLeftPoint":{"lat":41.08283,"lon":29.00781},"btmRightPoint":{"lat":41.08103,"lon":29.01019}},"entryPoints":[{"type":"main","position":{"lat":41.08233,"lon":29.0099}}],"chargingPark":{"connectors":[{"connectorType":"IEC62196Type2Outlet","ratedPowerKW":22,"voltageV":400,"currentA":32,"currentType":"AC3"}]}},{"type":"POI","id":"792009018667671","score":99.3434906006,"dist":656.50633087682,"info":"search:ev:792009018667671","poi":{"name":"Eşarj Esentepe Eski Büyükdere Caddesi","phone":"+90 850 433 7275","categorySet":[{"id":7309}],"categories":["electric vehicle station"],"classifications":[{"code":"ELECTRIC_VEHICLE_STATION","names":[{"nameLocale":"en-US","name":"electric vehicle station"}]}]},"address":{"streetNumber":"209 4","streetName":"Eski Büyükdere Caddesi","municipalitySubdivision":"Esentepe","municipality":"Istanbul","postalCode":"34394","countryCode":"TR","country":"Turkey","countryCodeISO3":"TUR","freeformAddress":"Eski Büyükdere Caddesi 209 4, 34394 Esentepe","localName":"Esentepe"},"position":{"lat":41.08191,"lon":29.00906},"viewport":{"topLeftPoint":{"lat":41.08281,"lon":29.00787},"btmRightPoint":{"lat":41.08101,"lon":29.01025}},"entryPoints":[{"type":"main","position":{"lat":41.08225,"lon":29.00965}}],"chargingPark":{"connectors":[{"connectorType":"IEC62196Type2Outlet","ratedPowerKW":22,"voltageV":400,"currentA":32,"currentType":"AC3"}]}},{"type":"POI","id":"792009018002508","score":99.2511825562,"dist":748.8207113172239,"info":"search:ev:792009018002508","poi":{"name":"ZES Esentepe","categorySet":[{"id":7309}],"categories":["electric vehicle station"],"classifications":[{"code":"ELECTRIC_VEHICLE_STATION","names":[{"nameLocale":"en-US","name":"electric vehicle station"}]}]},"address":{"municipalitySubdivision":"Esentepe","municipality":"Istanbul","postalCode":"34394","countryCode":"TR","country":"Turkey","countryCodeISO3":"TUR","freeformAddress":"34394 Esentepe","localName":"Esentepe"},"position":{"lat":41.07581,"lon":29.0122},"viewport":{"topLeftPoint":{"lat":41.07671,"lon":29.01101},"btmRightPoint":{"lat":41.07491,"lon":29.01339}},"entryPoints":[{"type":"main","position":{"lat":41.07563,"lon":29.0122}}],"chargingPark":{"connectors":[{"connectorType":"IEC62196Type2Outlet","ratedPowerKW":22,"voltageV":400,"currentA":32,"currentType":"AC3"}]}},{"type":"POI","id":"792009018002422","score":99.0916442871,"dist":908.3575420889063,"info":"search:ev:792009018002422","poi":{"name":"YGE Emniyet Evleri Eski Büyükdere Caddesi","phone":"+90 216 444 49 43","categorySet":[{"id":7309}],"categories":["electric vehicle station"],"classifications":[{"code":"ELECTRIC_VEHICLE_STATION","names":[{"nameLocale":"en-US","name":"electric vehicle station"}]}]},"address":{"streetNumber":"1","streetName":"Eski Büyükdere Caddesi","municipalitySubdivision":"Emniyet Evleri","municipality":"Istanbul","postalCode":"34415","countryCode":"TR","country":"Turkey","countryCodeISO3":"TUR","freeformAddress":"Eski Büyükdere Caddesi 1, 34415 Emniyet Evleri","localName":"Emniyet Evleri"},"position":{"lat":41.08552,"lon":29.0066},"viewport":{"topLeftPoint":{"lat":41.08642,"lon":29.00541},"btmRightPoint":{"lat":41.08462,"lon":29.00779}},"entryPoints":[{"type":"main","position":{"lat":41.08561,"lon":29.00689}}],"chargingPark":{"connectors":[{"connectorType":"IEC62196Type2CableAttached","ratedPowerKW":3.7,"voltageV":230,"currentA":16,"currentType":"AC1"}]}},{"type":"POI","id":"792009006035329","score":99.0862426758,"dist":913.7545920931317,"info":"search:ev:792009006035329","poi":{"name":"bd oto Emniyet Evleri Akarsu Caddesi","phone":"+90 216 339 39 00","categorySet":[{"id":7309}],"categories":["electric vehicle station"],"classifications":[{"code":"ELECTRIC_VEHICLE_STATION","names":[{"nameLocale":"en-US","name":"electric vehicle station"}]}]},"address":{"streetNumber":"11-1","streetName":"Akarsu Caddesi","municipalitySubdivision":"Emniyet Evleri","municipality":"Istanbul","postalCode":"34415","countryCode":"TR","country":"Turkey","countryCodeISO3":"TUR","freeformAddress":"Akarsu Caddesi 11-1, 34415 Emniyet Evleri","localName":"Emniyet Evleri"},"position":{"lat":41.08577,"lon":29.00543},"viewport":{"topLeftPoint":{"lat":41.08667,"lon":29.00424},"btmRightPoint":{"lat":41.08487,"lon":29.00662}},"entryPoints":[{"type":"main","position":{"lat":41.08604,"lon":29.00547}}],"chargingPark":{"connectors":[{"connectorType":"IEC62196Type2Outlet","ratedPowerKW":3.7,"voltageV":230,"currentA":16,"currentType":"AC1"}]}},{"type":"POI","id":"792009018066619","score":98.8642959595,"dist":1135.705714857967,"info":"search:ev:792009018066619","poi":{"name":"GERSAN Levent Sümbül Sokak","categorySet":[{"id":7309}],"categories":["electric vehicle station"],"classifications":[{"code":"ELECTRIC_VEHICLE_STATION","names":[{"nameLocale":"en-US","name":"electric vehicle station"}]}]},"address":{"streetName":"Sümbül Sokak","municipalitySubdivision":"Levent","municipality":"Istanbul","postalCode":"34330","countryCode":"TR","country":"Turkey","countryCodeISO3":"TUR","freeformAddress":"Sümbül Sokak, 34330 Levent","localName":"Levent"},"position":{"lat":41.07898,"lon":29.01705},"viewport":{"topLeftPoint":{"lat":41.07988,"lon":29.01586},"btmRightPoint":{"lat":41.07808,"lon":29.01824}},"entryPoints":[{"type":"main","position":{"lat":41.07901,"lon":29.01717}}],"chargingPark":{"connectors":[{"connectorType":"IEC62196Type2Outlet","ratedPowerKW":22,"voltageV":400,"currentA":32,"currentType":"AC3"}]}},{"type":"POI","id":"792009006035222","score":98.8548126221,"dist":1145.1869438515175,"info":"search:ev:792009006035222","poi":{"name":"Eşarj Esentepe Büyükdere Caddesi","phone":"+90 212 456 04 57","categorySet":[{"id":7309}],"categories":["electric vehicle station"],"classifications":[{"code":"ELECTRIC_VEHICLE_STATION","names":[{"nameLocale":"en-US","name":"electric vehicle station"}]}]},"address":{"streetNumber":"121/A","streetName":"Büyükdere Caddesi","municipalitySubdivision":"Esentepe","municipality":"Istanbul","postalCode":"34394","countryCode":"TR","country":"Turkey","countryCodeISO3":"TUR","freeformAddress":"Büyükdere Caddesi 121/A, 34394 Esentepe","localName":"Esentepe"},"position":{"lat":41.06737,"lon":29.00385},"viewport":{"topLeftPoint":{"lat":41.06827,"lon":29.00266},"btmRightPoint":{"lat":41.06647,"lon":29.00504}},"entryPoints":[{"type":"main","position":{"lat":41.06726,"lon":29.00393}}],"chargingPark":{"connectors":[{"connectorType":"IEC62196Type2Outlet","ratedPowerKW":12,"voltageV":230,"currentA":32,"currentType":"AC3"}]}},{"type":"POI","id":"792009018002426","score":98.5305175781,"dist":1469.484792974132,"info":"search:ev:792009018002426","poi":{"name":"GERSAN Fulya Garaj Sokak","phone":"+90 216 593 00 50","categorySet":[{"id":7309}],"categories":["electric vehicle station"],"classifications":[{"code":"ELECTRIC_VEHICLE_STATION","names":[{"nameLocale":"en-US","name":"electric vehicle station"}]}]},"address":{"streetName":"Garaj Sokak","municipalitySubdivision":"Fulya","municipality":"Istanbul","postalCode":"34394","countryCode":"TR","country":"Turkey","countryCodeISO3":"TUR","freeformAddress":"Garaj Sokak, 34394 Fulya","localName":"Fulya"},"position":{"lat":41.06538,"lon":28.99716},"viewport":{"topLeftPoint":{"lat":41.06628,"lon":28.99597},"btmRightPoint":{"lat":41.06448,"lon":28.99835}},"entryPoints":[{"type":"main","position":{"lat":41.06533,"lon":28.99706}}],"chargingPark":{"connectors":[{"connectorType":"IEC62196Type2Outlet","ratedPowerKW":12,"voltageV":230,"currentA":32,"currentType":"AC3"}]}},{"type":"POI","id":"792009015950499","score":98.4783477783,"dist":1521.650212071841,"info":"search:ev:792009015950499","poi":{"name":"Eşarj Gayrettepe Girne Sokak","phone":"+90 850 433 7275","categorySet":[{"id":7309}],"categories":["electric vehicle station"],"classifications":[{"code":"ELECTRIC_VEHICLE_STATION","names":[{"nameLocale":"en-US","name":"electric vehicle station"}]}]},"address":{"streetNumber":"1","streetName":"Girne Sokak","municipalitySubdivision":"Gayrettepe","municipality":"Istanbul","postalCode":"34349","countryCode":"TR","country":"Turkey","countryCodeISO3":"TUR","freeformAddress":"Girne Sokak 1, 34349 Gayrettepe","localName":"Gayrettepe"},"position":{"lat":41.06401,"lon":29.00247},"viewport":{"topLeftPoint":{"lat":41.06491,"lon":29.00128},"btmRightPoint":{"lat":41.06311,"lon":29.00366}},"entryPoints":[{"type":"main","position":{"lat":41.06421,"lon":29.00275}}],"chargingPark":{"connectors":[{"connectorType":"IEC62196Type2Outlet","ratedPowerKW":22,"voltageV":400,"currentA":32,"currentType":"AC3"}]}},{"type":"POI","id":"792009018002605","score":98.4711914063,"dist":1528.8114367770747,"info":"search:ev:792009018002605","poi":{"name":"ZES Sultan Selim Eski Büyükdere Caddesi","categorySet":[{"id":7309}],"categories":["electric vehicle station"],"classifications":[{"code":"ELECTRIC_VEHICLE_STATION","names":[{"nameLocale":"en-US","name":"electric vehicle station"}]}]},"address":{"streetName":"Eski Büyükdere Caddesi","municipalitySubdivision":"Sultan Selim","municipality":"Istanbul","postalCode":"34415","countryCode":"TR","country":"Turkey","countryCodeISO3":"TUR","freeformAddress":"Eski Büyükdere Caddesi, 34415 Sultan Selim","localName":"Sultan Selim"},"position":{"lat":41.0914,"lon":29.0045},"viewport":{"topLeftPoint":{"lat":41.0923,"lon":29.00331},"btmRightPoint":{"lat":41.0905,"lon":29.00569}},"entryPoints":[{"type":"main","position":{"lat":41.09147,"lon":29.00485}}],"chargingPark":{"connectors":[{"connectorType":"IEC62196Type2Outlet","ratedPowerKW":22,"voltageV":400,"currentA":32,"currentType":"AC3"}]}},{"type":"POI","id":"792009018002600","score":98.3547134399,"dist":1645.2893213003586,"info":"search:ev:792009018002600","poi":{"name":"ZES Levazim Zorlu Center Metro Alt Geçidi","categorySet":[{"id":7309}],"categories":["electric vehicle station"],"classifications":[{"code":"ELECTRIC_VEHICLE_STATION","names":[{"nameLocale":"en-US","name":"electric vehicle station"}]}]},"address":{"streetNumber":"297","streetName":"Zorlu Center Metro Alt Geçidi","municipalitySubdivision":"Levazım","municipality":"Istanbul","postalCode":"34340","countryCode":"TR","country":"Turkey","countryCodeISO3":"TUR","freeformAddress":"Zorlu Center Metro Alt Geçidi 297, 34340 Levazim","localName":"Levazim"},"position":{"lat":41.06619,"lon":29.016},"viewport":{"topLeftPoint":{"lat":41.06709,"lon":29.01481},"btmRightPoint":{"lat":41.06529,"lon":29.01719}},"entryPoints":[{"type":"main","position":{"lat":41.06631,"lon":29.01551}}],"chargingPark":{"connectors":[{"connectorType":"IEC62196Type2Outlet","ratedPowerKW":22,"voltageV":400,"currentA":32,"currentType":"AC3"}]}},{"type":"POI","id":"792009015950472","score":98.3488616943,"dist":1651.1411825195187,"info":"search:ev:792009015950472","poi":{"name":"Eşarj Esentepe İrfan Baştuğ Paşa Caddesi","phone":"+90 850 433 7275","categorySet":[{"id":7309}],"categories":["electric vehicle station"],"classifications":[{"code":"ELECTRIC_VEHICLE_STATION","names":[{"nameLocale":"en-US","name":"electric vehicle station"}]}]},"address":{"streetName":"İrfan Baştuğ Paşa Caddesi","municipalitySubdivision":"Esentepe","municipality":"Istanbul","postalCode":"34394","countryCode":"TR","country":"Turkey","countryCodeISO3":"TUR","freeformAddress":"İrfan Baştuğ Paşa Caddesi, 34394 Esentepe","localName":"Esentepe"},"position":{"lat":41.06389,"lon":29.01096},"viewport":{"topLeftPoint":{"lat":41.06479,"lon":29.00977},"btmRightPoint":{"lat":41.06299,"lon":29.01215}},"entryPoints":[{"type":"main","position":{"lat":41.06392,"lon":29.01088}}],"chargingPark":{"connectors":[{"connectorType":"IEC62196Type2Outlet","ratedPowerKW":22,"voltageV":400,"currentA":32,"currentType":"AC3"}]}},{"type":"POI","id":"792009006035360","score":98.3322906494,"dist":1667.708200134874,"info":"search:ev:792009006035360","poi":{"name":"bd oto Çağlayan Şair Sokak","phone":"+90 216 339 39 00","categorySet":[{"id":7309}],"categories":["electric vehicle station"],"classifications":[{"code":"ELECTRIC_VEHICLE_STATION","names":[{"nameLocale":"en-US","name":"electric vehicle station"}]}]},"address":{"streetNumber":"4","streetName":"Şair Sokak","municipalitySubdivision":"Çağlayan","municipality":"Istanbul","postalCode":"34403","countryCode":"TR","country":"Turkey","countryCodeISO3":"TUR","freeformAddress":"Şair Sokak 4, 34403 Çağlayan","localName":"Çağlayan"},"position":{"lat":41.08374,"lon":28.98542},"viewport":{"topLeftPoint":{"lat":41.08464,"lon":28.98423},"btmRightPoint":{"lat":41.08284,"lon":28.98661}},"entryPoints":[{"type":"main","position":{"lat":41.08402,"lon":28.98574}}],"chargingPark":{"connectors":[{"connectorType":"IEC62196Type2Outlet","ratedPowerKW":3.7,"voltageV":230,"currentA":16,"currentType":"AC1"}]}},{"type":"POI","id":"792009018002561","score":98.3202514648,"dist":1679.750860782086,"info":"search:ev:792009018002561","poi":{"name":"ZES Levazim Koru Sokak","categorySet":[{"id":7309}],"categories":["electric vehicle station"],"classifications":[{"code":"ELECTRIC_VEHICLE_STATION","names":[{"nameLocale":"en-US","name":"electric vehicle station"}]}]},"address":{"streetNumber":"2","streetName":"Koru Sokak","municipalitySubdivision":"Levazım","municipality":"Istanbul","postalCode":"34340","countryCode":"TR","country":"Turkey","countryCodeISO3":"TUR","freeformAddress":"Koru Sokak 2, 34340 Levazim","localName":"Levazim"},"position":{"lat":41.06685,"lon":29.0176},"viewport":{"topLeftPoint":{"lat":41.06775,"lon":29.01641},"btmRightPoint":{"lat":41.06595,"lon":29.01879}},"entryPoints":[{"type":"main","position":{"lat":41.06697,"lon":29.01853}}],"chargingPark":{"connectors":[{"connectorType":"Chademo","ratedPowerKW":90,"voltageV":450,"currentA":200,"currentType":"DC"},{"connectorType":"IEC62196Type2CCS","ratedPowerKW":90,"voltageV":450,"currentA":200,"currentType":"DC"},{"connectorType":"IEC62196Type2Outlet","ratedPowerKW":22,"voltageV":400,"currentA":32,"currentType":"AC3"}]}},{"type":"POI","id":"792009018257188","score":98.319770813,"dist":1680.2287561633063,"info":"search:ev:792009018257188","poi":{"name":"GERSAN Hürriyet Zembil Sokak","categorySet":[{"id":7309}],"categories":["electric vehicle station"],"classifications":[{"code":"ELECTRIC_VEHICLE_STATION","names":[{"nameLocale":"en-US","name":"electric vehicle station"}]}]},"address":{"streetName":"Zembil Sokak","municipalitySubdivision":"Kagithane","municipality":"Istanbul","postalCode":"34403","countryCode":"TR","country":"Turkey","countryCodeISO3":"TUR","freeformAddress":"Zembil Sokak, 34403 Hürriyet","localName":"Hürriyet"},"position":{"lat":41.07107,"lon":28.98558},"viewport":{"topLeftPoint":{"lat":41.07197,"lon":28.98439},"btmRightPoint":{"lat":41.07017,"lon":28.98677}},"entryPoints":[{"type":"main","position":{"lat":41.07114,"lon":28.9857}}],"chargingPark":{"connectors":[{"connectorType":"IEC62196Type2Outlet","ratedPowerKW":22,"voltageV":400,"currentA":32,"currentType":"AC3"}]}},{"type":"POI","id":"792009018002615","score":98.2012252808,"dist":1798.7780314500988,"info":"search:ev:792009018002615","poi":{"name":"ZES Gayrettepe Pazar Sokak","categorySet":[{"id":7309}],"categories":["electric vehicle station"],"classifications":[{"code":"ELECTRIC_VEHICLE_STATION","names":[{"nameLocale":"en-US","name":"electric vehicle station"}]}]},"address":{"streetName":"Pazar Sokak","municipalitySubdivision":"Gayrettepe","municipality":"Istanbul","postalCode":"34349","countryCode":"TR","country":"Turkey","countryCodeISO3":"TUR","freeformAddress":"Pazar Sokak, 34349 Gayrettepe","localName":"Gayrettepe"},"position":{"lat":41.06209,"lon":29.0094},"viewport":{"topLeftPoint":{"lat":41.06299,"lon":29.00821},"btmRightPoint":{"lat":41.06119,"lon":29.01059}},"entryPoints":[{"type":"main","position":{"lat":41.06208,"lon":29.00934}}],"chargingPark":{"connectors":[{"connectorType":"IEC62196Type2Outlet","ratedPowerKW":22,"voltageV":400,"currentA":32,"currentType":"AC3"}]}},{"type":"POI","id":"792009018002587","score":98.1789093018,"dist":1821.0893059228795,"info":"search:ev:792009018002587","poi":{"name":"ZES Levazim Koru Sokak","categorySet":[{"id":7309}],"categories":["electric vehicle station"],"classifications":[{"code":"ELECTRIC_VEHICLE_STATION","names":[{"nameLocale":"en-US","name":"electric vehicle station"}]}]},"address":{"streetName":"Koru Sokak","municipalitySubdivision":"Levazım","municipality":"Istanbul","postalCode":"34340","countryCode":"TR","country":"Turkey","countryCodeISO3":"TUR","freeformAddress":"Koru Sokak, 34340 Levazim","localName":"Levazim"},"position":{"lat":41.06533,"lon":29.0179},"viewport":{"topLeftPoint":{"lat":41.06623,"lon":29.01671},"btmRightPoint":{"lat":41.06443,"lon":29.01909}},